ParkID,PSA,Park,FQ,Score,Facility Type,Facility Name,Address,State,Zipcode,Floor Count,Square Feet,Perimeter Length,Acres,Longitude,Latitude
86,PSA4,Carl Larsen Park,FY05Q3,0.795,Basketball Court,Ocean View Basketball Courts,Capitol & Montana St,CA,94112,,5572.02031431,311.98222779,0.1279165,-122.45670775,37.71633478
13,PSA4,Junipero Serra Playground,FY05Q3,0.957,Ball Field,Glen ball fields,Diamond & Farnum Street,CA,94131,,124520.486259,1891.67544541,2.85860846,-122.44059154,37.73600816
9,PSA4,Rolph Nicol Playground,FY05Q3,0.864,Dog Play Area,Douglass dog play area,26th & Douglass Street,CA,94114,,70655.3372339,1153.01964642,1.62202984,-122.43889466,37.74674101
117,PSA2,Alamo Square,FY05Q4,0.857,Restroom,Gilman Bathrooms,Gilman Ave & Griffith,CA,94124,,378.6686028,94.25731914,0.00869307,-122.38877192,37.71717866
60,PSA6,Jose Coronado Playground,FY05Q4,0.859,Basketball Court,GGP1 Panhandle Basketball Courts,Stanyan & Great Hwy,CA,94117,,4645.55364528,279.46531331,0.10664766,-122.44838047,37.77230438
42,PSA3,Little Hollywood Park,FY05Q4,0.846,Basketball Court,Chalmers: Basketball,670 Brunswick & Lowell Roemer,CA,94112,,8546.61023555,381.78457715,0.19620396,-122.44714807,37.70979694
10,PSA4,Lake Merced Park,FY05Q4,0.73,Ball Field,Eureka Valley Ball Fields,100 Collingwood,CA,94114,,32412.1511184,705.06018676,0.74408358,-122.4366393,37.7595074
94,GGP,Golden Gate Park,FY05Q4,0.588,Basketball Court,Selby/Palou Basketball Courts,Palou & Selby,CA,94124,,552.10783524,94.49046177,0.0126747,-122.40020504,37.73900113
104,PSA2,Grattan Playground,FY05Q4,0.873,Basketball Court,West Sunset Basketball Courts,3223 Ortega St & 39th Ave,CA,94116,,7821.63435515,370.89819061,0.17956074,-122.49777649,37.75025416
153,PSA1,Francisco Park,FY05Q4,1,Clubhouse,Chalmers: Clubhouse,670 Brunswick & Lowell Roemer,CA,94112,1,3156.83268943,250.24551991,0.0724712,-122.4470315,37.70950787
111,PSA1,Palace of Fine Arts,FY05Q4,0.772,,,,,,,,,,,
80,PSA5,Corona Heights,FY05Q4,1,Basketball Court,Miraloma Basketball Courts,Omar & Sequoia Way,CA,94127,,6480.24350968,333.89334191,0.14876652,-122.44913152,37.73905066
200,PSA5,States Street Playground,FY05Q4,0.961,Clubhouse,Parque Ninos Unidos Clubhouse,23rd & Treat St,CA,94110,,2043.33632629,288.86182024,0.04690874,-122.41389356,37.75431392
33,PSA6,Bernal Heights Recreation Center,FY05Q4,0.921,Ball Field,South Sunset Ball Fields,40th Ave & Vicente St,CA,94116,,97238.4642689,1772.8081394,2.23229691,-122.49845826,37.73710357
192,PSA2,Turk-Hyde Mini Park,FY05Q4,1,Activity Center,Lincoln Park Golf Course Clubhouse,34th Ave & Clement,CA,94121,,8288.49405798,571.17541938,0.1902784,-122.49430875,37.78226619
22,PSA5,Upper Noe Recreation Center,FY05Q4,0.779,Ball Field,Laurel Ball Fields,Euclid & Collins Streets,CA,94118,,24075.7227053,622.98768297,0.55270475,-122.45087374,37.78391437
32,PSA6,Holly Park,FY05Q4,0.932,Ball Field,Silver Terrace Ball Fields,Thornton & Bayshore,CA,94124,,144641.95196,2286.76352614,3.3205356,-122.40329777,37.73298657
140,PSA1,Betty Ann Ong Chinese Recreation Center,FY05Q4,0.854,Restroom,Lower Great Highway Taraval Restrooms,Great Hwy & Taraval,CA,94122,,5215.72066967,489.53864192,0.11973695,-122.50704685,37.7413345
144,PSA1,Washington-Hyde Mini Park,FY05Q4,1,Restroom,Mountain Lake Restrooms,12th Ave & Lake St,CA,94118,1,907.67914558,157.99653113,0.02083753,-122.47175615,37.78697309
137,PSA1,Collis P. Huntington Park,FY05Q4,0.978,,,,,,,,,,,
145,PSA1,Ina Coolbrith Mini Park,FY05Q4,0.826,Restroom,Noe Valley Courts Bathrooms,24th & Douglass St,CA,94114,1,391.33209888,98.01244807,0.00898378,-122.43921804,37.75148479
75,PSA5,Eureka Valley Recreation Center,FY05Q4,0.385,Basketball Court,Little Hollywood Basketball Courts,Lathrop & Tocoloma,CA,94134,,3785.5995273,257.52762314,0.08690575,-122.39780481,37.71007449
73,PSA5,Seward Mini Park,FY05Q4,0.956,Basketball Court,Koshland Park Basketball Courts,Page & Buchanan,CA,94102,,1589.21913452,151.93653184,0.0364836,-122.42699192,37.77327797
94,GGP,Golden Gate Park,FY05Q4,0.864,Basketball Court,Selby/Palou Basketball Courts,Palou & Selby,CA,94124,,552.10783524,94.49046177,0.0126747,-122.40020504,37.73900113
30,PSA3,Palega Recreation Center,FY05Q4,0.796,Ball Field,Potrero Hill ball fields,801 Arkansas Street,CA,94107,,140706.045878,1431.23966482,3.23017926,-122.39699911,37.75553944
89,PSA4,Golden Gate Heights Park,FY05Q4,0.878,Basketball Court,Palega Basketball Courts,500 Felton,CA,94134,,7360.71353371,362.13436638,0.16897941,-122.41004368,37.72889564
72,PSA5,Noe Valley Courts,FY05Q4,0.54,Basketball Court,Kelloch Velasco Basketball Courts,Kelloch & Velasco St,CA,94134,,8317.7788332,532.84981018,0.19095069,-122.41281406,37.70844554
7,PSA5,George Christopher Playground,FY05Q4,0.5,Ball Field,Larsen Ball Fields,19th Avenue & Vicente,CA,94116,,20560.1826994,567.35952328,0.47199874,-122.47602952,37.74084587
8,PSA5,Douglass Playground,FY05Q4,0.537,Ball Field,Crocker Amazon - ball fields,Moscow & Italy Streets,CA,94112,,515443.479217,5506.26766406,11.8330014,-122.43050192,37.71451183
61,PSA6,Mission Playground,FY05Q4,0.566,Basketball Court,Grattan Basketball Courts,1180 Stanyan St,CA,94117,,7371.65644109,350.30567378,0.16923062,-122.45151797,37.76245816
105,PSA1,Angelo J. Rossi Playground,FY05Q4,0.881,Basketball Court,YoungbloodColeman Basketball Courts,Mendell & Galvez,CA,94124,,10461.2418713,450.06419153,0.24015803,-122.38380193,37.73816799
96,PSA1,Fulton Playground,FY05Q4,0.785,Basketball Court,Friend Basketball Courts,270 6th St,CA,94103,,6206.83755454,325.53343636,0.14248995,-122.40664464,37.77871683
201,PSA6,Prentiss Mini Park,FY05Q4,0.938,Clubhouse,Peixotto Clubhouse,15th St & Roosevelt,CA,94114,1,2206.75911407,197.19342464,0.05066042,-122.43763555,37.7656256
95,PSA1,Cabrillo Playground,FY05Q4,0.847,Basketball Court,Silver Terrace Basketball Courts,Thornton & Bayshore,CA,94124,,6430.65812057,324.46297144,0.14762819,-122.40237246,37.73280967
156,PSA1,10th Avenue-Clement Mini Park,FY05Q4,0.655,Clubhouse,Boeddeker Park Clubhouse,295 Eddy St,CA,94102,2,3737.61853707,341.73327562,0.08580426,-122.41181591,37.78431772
172,PSA1,Richmond Recreation Center,FY05Q4,0.952,Fieldhouse,GGP1 Kezar Fieldhouse S,755 Stanyan,CA,94117,,2260.34423283,232.58714591,0.05189057,-122.45598582,37.76620435
118,PSA2,Joseph L. Alioto Performing Arts Piazza,FY05Q4,0.974,,,,,,,,,,,
65,PSA4,Aptos Playground,FY05Q4,0.759,Basketball Court,Holly Park Basketball Courts,Holly Park Cir,CA,94110,,5308.3049602,303.45103125,0.1218624,-122.42038592,37.73698333
9,PSA4,Rolph Nicol Playground,FY05Q4,0.904,Dog Play Area,Douglass dog play area,26th & Douglass Street,CA,94114,,70655.3372339,1153.01964642,1.62202984,-122.43889466,37.74674101
54,PSA2,Jackson Playground,FY05Q4,0.885,Basketball Court,Jose Coronado Basketball Courts,21st & Folsom,CA,94110,,6941.84702357,354.07131837,0.15936352,-122.41525922,37.75750603
52,PSA2,Potrero Hill Recreation Center,FY05Q4,0.831,Basketball Court,Cayuga Basketball Courts,Cayuga & Naglee St,CA,94112,,7743.77720525,358.05812772,0.17777337,-122.45013946,37.71405211
159,PSA5,Cayuga-Lamartine Mini Park,FY05Q4,0.545,Clubhouse,Willie Woo Woo Wong Clubhouse,850 Sacramento St,CA,94108,2,3403.83588163,243.05796446,0.07814163,-122.40690115,37.79359973
31,PSA6,St. Mary's Recreation Center,FY05Q4,0.976,Ball Field,Raymond Kimbell ball fields,Steiner & O'Farrell Street,CA,94115,,104365.61148,1535.71717739,2.39591435,-122.43509741,37.78270623
94,GGP,Golden Gate Park,FY05Q4,0.877,Basketball Court,Selby/Palou Basketball Courts,Palou & Selby,CA,94124,,552.10783524,94.49046177,0.0126747,-122.40020504,37.73900113
141,PSA1,Portsmouth Square,FY05Q4,0.714,Restroom,Lower Great Hwy Wawona Bathrooms,Great Hwy & Noriega,CA,94122,1,3391.88708734,1046.45121399,0.07786732,-122.50634897,37.73640946
134,PSA2,Father Alfred E. Boeddeker Park,FY05Q4,1,Restroom,Holly Park Bathrooms,Holly Park Cir,CA,94110,,446.49970338,92.08904239,0.01025026,-122.42057329,37.73711761
164,PSA3,Crocker Amazon Playground,FY05Q4,0.809,Clubhouse,Excelsior Clubhouse,Russia Ave & Madrid,CA,94112,1,2747.3730508,278.83978327,0.06307126,-122.43361483,37.72024888
13,PSA4,Junipero Serra Playground,FY05Q4,0.935,Ball Field,Glen ball fields,Diamond & Farnum Street,CA,94131,,124520.486259,1891.67544541,2.85860846,-122.44059154,37.73600816
68,PSA4,West Portal Playground,FY05Q4,1,Basketball Court,James Rolph Jr Basketball Courts,Potrero & Cesar Chavez St,CA,94110,,7643.29521634,509.15403411,0.17546662,-122.40654275,37.75007779
16,PSA4,Randolph-Bright Mini Park,FY05Q4,0.875,,,,,,,,,,,
196,PSA4,Head-Brotherhood Mini Park,FY05Q4,0.957,Maintenance Facility,Michelangelo Gardeners Shed,Greenwich & Jones,CA,94133,,249.74198702,68.36951953,0.00573331,-122.41678045,37.80126925
17,PSA4,Merced Heights Playground,FY05Q4,0.747,Ball Field,Jackson ball fields,17th & Arkansas Street,CA,94107,,147298.316637,1631.63027581,3.38151758,-122.39966866,37.7644047
70,PSA5,Miraloma Playground,FY05Q4,0.914,Basketball Court,Julius Kahn Basketball Courts,West Pacific Ave & Spruce St,CA,94118,,5049.66417562,295.52117196,0.1159248,-122.45432447,37.7912172
1,PSA5,Glen Park,FY05Q4,0.858,Ball Field,Chalmers: Ball Fields,670 Brunswick & Lowell Roemer,CA,94112,,43710.0184176,856.15180694,1.00344796,-122.44643687,37.70989615
158,PSA5,Joost-Baden Mini Park,FY06Q1,0.571,Clubhouse,Cayuga Clubhouse,Cayuga & Naglee St,CA,94112,1,3211.76397627,233.43396958,0.07373225,-122.44979162,37.71423603
34,PSA6,Coleridge Mini Park,FY06Q1,0.632,Ball Field,St Mary's Ball Fields,Murray & Justin Dr,CA,94112,,84078.5528853,1213.73295736,1.9301857,-122.42088341,37.7344511
182,PSA2,Fillmore-Turk Mini Park,FY06Q1,0.73,Clubhouse,J. P. Murphy Clubhouse,1960 9th Ave,CA,94116,2,2599.03414942,236.37915801,0.05966585,-122.46524302,37.75156572
122,PSA2,Jefferson Square,FY06Q1,0.788,Restroom,GGP4 Mothers Meadow Bathroom,M.L. King Dr/19th Ave,CA,94117,,1381.33674553,154.49024443,0.03171126,-122.47668133,37.76637364
107,PSA1,Laurel Hill Playground,FY06Q1,0.896,Restroom,Alamo: Restrooms,Hayes & Steiner,CA,94117,1,479.58760374,96.29146286,0.01100986,-122.43430821,37.776068
166,PSA1,Julius Kahn Playground,FY06Q1,0.872,Clubhouse,Gilman Clubhouse,Gilman Ave & Griffith,CA,94124,1,3479.96936258,236.52381605,0.07988942,-122.38832992,37.71682579
108,PSA2,Bush-Broderick Mini Park,FY06Q1,0.714,Restroom,Alta: Restrooms,Jackson & Steiner,CA,94115,1,213.12065831,60.72910794,0.0048926,-122.43815497,37.7912412
119,PSA2,Margaret S. Hayward Playground,FY06Q1,0.87,Restroom,GGP3 Arboretum South Restrooms,Stanyan & Great Hwy,CA,94117,,330.07628624,78.2887399,0.00757754,-122.46834526,37.76680021
105,PSA1,Angelo J. Rossi Playground,FY06Q1,0.909,Basketball Court,YoungbloodColeman Basketball Courts,Mendell & Galvez,CA,94124,,10461.2418713,450.06419153,0.24015803,-122.38380193,37.73816799
116,PSA2,Hayes Valley Playground,FY06Q1,0.939,,,,,,,,,,,
114,PSA2,Page-Laguna Mini Park,FY06Q1,0.833,Maintenance Facility,Huntington Park Maint Bldgs,California & Taylor,CA,94108,1,299.70694907,64.77327613,0.00688035,-122.4122741,37.7920544
56,PSA2,South Park,FY06Q1,0.979,Basketball Court,Duboce Park Basketball Courts,Duboce & Scott St,CA,94117,,4241.34373459,277.37614501,0.09736824,-122.4342058,37.76943315
38,PSA3,Bay View Playground,FY06Q1,0.717,Ball Field,Visitacion Valley Ball Fields,Cora & Leland St,CA,94134,,53257.8999859,886.43813687,1.22263804,-122.40908358,37.71227452
44,PSA3,Gilman Playground,FY06Q1,0.702,Basketball Court,Rossi Basketball Courts,Arguello & Anza,CA,94118,,5991.51196238,319.89579462,0.13754674,-122.45738243,37.7792252
177,PSA3,Visitacion Valley Greenway,FY06Q1,0.859,,,,,,,,,,,
157,PSA3,Selby-Palou Mini Park,FY06Q1,0.548,Clubhouse,Cabrillo Clubhouse,38th Ave  &  Cabrillo,CA,94121,1,1379.55095637,194.20797613,0.03167026,-122.49845418,37.77309962
102,PSA1,Mountain Lake Park,FY06Q1,0.849,Basketball Court,Upper Noe Basketball Courts,Day & Sanchez St,CA,94131,,5471.93703318,304.92673649,0.12561889,-122.42795075,37.74226468
124,PSA2,Raymond Kimbell Playground,FY06Q1,0.568,Restroom,GGP2 Big Rec Bathroom,Stanyan & Great Hwy,CA,94117,1,1854.90428247,185.77869941,0.04258291,-122.46536323,37.76853068
51,PSA6,24th Street-York Mini Park,FY06Q1,0.927,Basketball Court,Larsen Basketball Courts,19th Ave & Vicente,CA,94116,,6939.12054321,352.4466055,0.15930093,-122.47610361,37.73980229
45,PSA3,Youngblood Coleman Playground,FY06Q1,0.785,Basketball Court,Argonne: Basketball,18th Ave  &  Geary Blvd,CA,94121,,4209.02369353,268.01064089,0.09662627,-122.47793647,37.77928896
82,PSA4,Pine Lake Park,FY06Q1,0.692,Basketball Court,Mission PG Basketball Court,19th & Linda,CA,94110,,5620.72826355,309.7624937,0.12903468,-122.42257415,37.75924429
18,PSA4,Brooks Park,FY06Q1,1,Ball Field,Rolph ball fields,Potrero & Cesar Chavez Street,CA,94110,,84562.7610124,1302.17308429,1.94130164,-122.4061396,37.74951809
23,PSA6,Juri Commons,FY06Q1,0.739,Ball Field,James Lang Ball Fields,1016 Laguna,CA,94102,,98547.664829,1395.6175974,2.26235214,-122.42465985,37.78097316
187,PSA6,Parque Ninos Unidos,FY06Q1,0.906,Clubhouse,Louis Sutter Clubhouse,Wayland & Yale St,CA,94134,,2487.20644945,176.85402932,0.05709863,-122.41437425,37.72238701
39,PSA3,Silver Terrace Playground,FY06Q1,0.802,Ball Field,West Sunset Ball Fields,3223 Ortega St & 39th Ave,CA,94116,,222407.848022,3633.30555762,5.10580206,-122.4986525,37.74905447
188,PSA3,Palou-Phelps Park,FY06Q1,0.787,Clubhouse,Julius Kahn Clubhouse,West Pacific Ave & Spruce St,CA,94118,1,1443.45118905,163.62705969,0.03313721,-122.45373436,37.79124744
93,PSA4,Sunset Playground,FY06Q1,0.773,Basketball Court,Rochambeau Basketball Courts,24th Ave & Lake,CA,94121,,11519.3302359,640.89995279,0.26444849,-122.4846026,37.78477532
165,PSA3,Hunters Point Recreation Center,FY06Q1,0.639,Clubhouse,Fulton Clubhouse,27th Ave & Fulton St,CA,94121,1,1324.89865642,192.82184031,0.03041561,-122.48689338,37.77354959
84,PSA4,Parkside Square,FY06Q1,0.873,Basketball Court,Noe Valley Courts Basketball Courts,24th & Douglass St,CA,94114,,4366.99484314,273.77967126,0.10025281,-122.43903453,37.75155961
166,PSA1,Julius Kahn Playground,FY06Q1,0.962,Clubhouse,Gilman Clubhouse,Gilman Ave & Griffith,CA,94124,1,3479.96936258,236.52381605,0.07988942,-122.38832992,37.71682579
107,PSA1,Laurel Hill Playground,FY06Q1,0.915,Restroom,Alamo: Restrooms,Hayes & Steiner,CA,94117,1,479.58760374,96.29146286,0.01100986,-122.43430821,37.776068
108,PSA2,Bush-Broderick Mini Park,FY06Q1,0.844,Restroom,Alta: Restrooms,Jackson & Steiner,CA,94115,1,213.12065831,60.72910794,0.0048926,-122.43815497,37.7912412
124,PSA2,Raymond Kimbell Playground,FY06Q1,0.754,Restroom,GGP2 Big Rec Bathroom,Stanyan & Great Hwy,CA,94117,1,1854.90428247,185.77869941,0.04258291,-122.46536323,37.76853068
86,PSA4,Carl Larsen Park,FY06Q1,0.813,Basketball Court,Ocean View Basketball Courts,Capitol & Montana St,CA,94112,,5572.02031431,311.98222779,0.1279165,-122.45670775,37.71633478
72,PSA5,Noe Valley Courts,FY06Q1,0.862,Basketball Court,Kelloch Velasco Basketball Courts,Kelloch & Velasco St,CA,94134,,8317.7788332,532.84981018,0.19095069,-122.41281406,37.70844554
149,PSA1,Telegraph Hill/Pioneer Park,FY06Q1,0.66,Restroom,States Street Restrooms,States St,CA,94114,1,298.62389649,80.84643246,0.00685549,-122.43856985,37.76376486
147,PSA1,Washington Square,FY06Q1,0.611,Restroom,Portsmouth Square Bathrooms,Washington & Walter Lum Pl,CA,94111,4,858.29910606,133.31310475,0.01970392,-122.40560121,37.79460147
204,PSA1,Broadway Tunnel East Mini Park,FY06Q1,1,Clubhouse,Portsmouth Square Clubhouse,Washington & Kearny St,CA,94111,,2363.62486901,209.84309912,0.05426158,-122.4052788,37.79502267
152,PSA1,Chestnut-Kearny Open Space,FY06Q1,0.8,Restroom,Marina Green Bathrooms West,Marina Blvd,CA,94123,,1089.89674304,172.86276135,0.02502069,-122.44826807,37.80575328
150,PSA1,Joe DiMaggio North Beach Playground,FY06Q1,0.849,Restroom,Washington Square Bathrooms,Filbert & Stockton & Columbus,CA,94133,1,287.27759197,83.94499361,0.00659501,-122.41063078,37.80105784
94,GGP,Golden Gate Park,FY06Q1,0.956,Basketball Court,Selby/Palou Basketball Courts,Palou & Selby,CA,94124,,552.10783524,94.49046177,0.0126747,-122.40020504,37.73900113
94,GGP,Golden Gate Park,FY06Q1,0.964,Basketball Court,Selby/Palou Basketball Courts,Palou & Selby,CA,94124,,552.10783524,94.49046177,0.0126747,-122.40020504,37.73900113
94,GGP,Golden Gate Park,FY06Q1,0.724,Basketball Court,Selby/Palou Basketball Courts,Palou & Selby,CA,94124,,552.10783524,94.49046177,0.0126747,-122.40020504,37.73900113
94,GGP,Golden Gate Park,FY06Q1,0.936,Basketball Court,Selby/Palou Basketball Courts,Palou & Selby,CA,94124,,552.10783524,94.49046177,0.0126747,-122.40020504,37.73900113
132,PSA1,Moscone Recreation Center,FY06Q1,0.774,Restroom,GGP5 Hellman Hollow Restrooms (frmrly Speedway M,Stanyan & Great Hwy,CA,94117,,1003.96155916,126.82863382,0.02304788,-122.4846926,37.76952984
79,PSA5,Saturn Street Steps,FY06Q1,0.286,,,,,,,,,,,
81,PSA5,Buena Vista Park,FY06Q1,0.619,Basketball Court,Mission Dolores Basketball Courts,19th & Dolores St,CA,94110,,6114.33862854,324.16947022,0.14036646,-122.42739885,37.76103393
195,PSA5,Peixotto Playground,FY06Q1,0.77,Clubhouse,McCoppin Square Clubhouse,24th & Taraval,CA,94116,1,1220.97237056,186.16244717,0.02802978,-122.48075768,37.743533
94,GGP,Golden Gate Park,FY06Q1,0.858,Basketball Court,Selby/Palou Basketball Courts,Palou & Selby,CA,94124,,552.10783524,94.49046177,0.0126747,-122.40020504,37.73900113
94,GGP,Golden Gate Park,FY06Q1,1,Basketball Court,Selby/Palou Basketball Courts,Palou & Selby,CA,94124,,552.10783524,94.49046177,0.0126747,-122.40020504,37.73900113
94,GGP,Golden Gate Park,FY06Q1,1,Basketball Court,Selby/Palou Basketball Courts,Palou & Selby,CA,94124,,552.10783524,94.49046177,0.0126747,-122.40020504,37.73900113
193,PSA2,Esprit Park,FY06Q1,0.875,Clubhouse,MS Hayward Historic Clubhouse,1016 Laguna,CA,94102,,1016.86513675,169.67849563,0.0233441,-122.42668959,37.7807431
113,PSA6,Duboce Park,FY06Q1,0.918,Restroom,Larsen Restrooms,19th Ave & Vicente,CA,94116,,323.65283913,77.38584687,0.00743008,-122.47604401,37.73945888
37,PSA6,Precita Park,FY06Q1,0.935,Ball Field,Upper Noe Ball Fields,Day & Sanchez St,CA,94131,,41131.458692,843.25765343,0.94425214,-122.42748055,37.74242329
167,PSA4,Midtown Terrace Playground,FY06Q1,0.968,Activity Center,GGP5 Anglers Lodge,Stanyan & Great Hwy,CA,94117,1,2013.00861791,212.43984643,0.0462125,-122.49656408,37.76799666
78,PSA5,Mt. Olympus,FY06Q1,0.952,Basketball Court,Michelangelo Basketball Courts,Greenwich & Jones,CA,94133,,4157.34091877,255.5544523,0.0954398,-122.41675033,37.80101867
197,PSA5,Topaz Open Space,FY06Q1,0,Clubhouse,Midtown Terrace Clubhouse,Clarendon & Olympia Way,CA,94131,1,2250.31679961,210.45916064,0.05166037,-122.45586793,37.7515958
63,PSA6,Mission Dolores Park,FY06Q1,0.953,Basketball Court,Head/Brotherhood Basketball Courts,Head St & Brotherhood Way,CA,94112,,5011.46119745,296.28422135,0.11504778,-122.46417493,37.7126251
199,PSA6,Coso-Precita Mini Park,FY06Q1,1,Maintenance Facility,Mission Dolores Park Maintenance Building,19th & Dolores St,CA,94110,2,1172.48017632,140.29280117,0.02691655,-122.42685893,37.75962315
176,PSA6,Mullen-Peralta Mini Park,FY06Q1,1,Activity Center,GGP1 Sharon Arts Studio,Sharon Meadow,CA,94117,2,8482.89796935,513.54125224,0.19474132,-122.4582116,37.76827229
19,PSA4,Minnie & Lovie Ward Recreation Center,FY06Q1,0.547,Ball Field,Louis Sutter PG Ball Fields,Mansell & Visitacion,CA,94134,,111951.522599,1514.096974,2.5700636,-122.41348022,37.72310926
170,PSA1,Woh Hei Yuen Park,FY06Q1,0.862,Activity Center,GGP3 County Fair Bldg,Stanyan & Great Hwy,CA,94117,1,28191.7247907,1359.81325728,0.64719554,-122.46716526,37.76656383
139,PSA1,Willie Woo Woo Wong Playground,FY06Q1,0.943,Restroom,Lower Great Highway Judah Restrooms,Great Hwy & Noriega,CA,94122,1,1844.32326936,190.92887089,0.04234001,-122.5095536,37.76024004
85,PSA4,South Sunset Playground,FY06Q1,0.909,Basketball Court,Joe Dimaggio Basketball Courts,651 Lombard St,CA,94133,,8238.44653742,368.89918681,0.18912946,-122.41205791,37.8024484
88,PSA4,McCoppin Square,FY06Q1,0.919,Basketball Court,Parkside Square Basketball Courts,28th Ave & Vicente,CA,94116,,2332.72574538,203.41131,0.05355223,-122.48342987,37.73875894
194,PSA5,29th Street-Diamond Open Space,FY06Q1,1,Clubhouse,MS Hayward Clubhouse,1016 Laguna,CA,94102,1,1365.16487066,192.08141295,0.03134,-122.42689899,37.78066418
203,PSA1,Broadway Tunnel West Mini Park,FY06Q1,0.909,Picnic Area,Pine Lake Park Picnic Areas,Sloat Blvd & Vale St,CA,94116,,1360.96363135,151.88378146,0.03124355,-122.48736957,37.73608483
136,PSA1,St. Mary's Square,FY06Q1,1,Restroom,Jefferson Square Bathrooms,Eddy & Gough,CA,94109,,449.38542699,90.23716577,0.01031651,-122.42546457,37.78153236
202,PSA2,Utah-18th Street Mini Park,FY06Q1,0.474,Clubhouse,Pine Lake Park Clubhouse,Sloat Blvd & Vale St,CA,94116,1,1707.81071477,191.98863539,0.0392061,-122.48719667,37.73602297
55,PSA2,Franklin Square,FY06Q1,0.174,Basketball Court,Crocker Amazon Basketball Courts,Moscow & Italy St,CA,94112,,16364.7869562,724.77705778,0.37568532,-122.43084993,37.71474057
180,PSA5,Sunnyside Conservatory,FY06Q1,0.645,Clubhouse,Grattan Clubhouse,1180 Stanyan St,CA,94117,1,2468.96985103,240.14986476,0.05667998,-122.45197204,37.76269549
66,PSA5,Balboa Park,FY06Q1,0.887,Basketball Court,J. P. Murphy Basketball Courts,1960 9th Ave,CA,94116,,5492.96238447,305.76962535,0.12610157,-122.46492925,37.75169429
191,PSA6,Kid Power Park,FY06Q1,1,Clubhouse,Laurel Hill Clubhouse,Euclid & Collins St,CA,94118,1,1340.11904178,184.90093265,0.03076502,-122.45120921,37.78370026
94,GGP,Golden Gate Park,FY06Q1,0.804,Basketball Court,Selby/Palou Basketball Courts,Palou & Selby,CA,94124,,552.10783524,94.49046177,0.0126747,-122.40020504,37.73900113
94,GGP,Golden Gate Park,FY06Q1,0.756,Basketball Court,Selby/Palou Basketball Courts,Palou & Selby,CA,94124,,552.10783524,94.49046177,0.0126747,-122.40020504,37.73900113
94,GGP,Golden Gate Park,FY06Q1,0.754,Basketball Court,Selby/Palou Basketball Courts,Palou & Selby,CA,94124,,552.10783524,94.49046177,0.0126747,-122.40020504,37.73900113
46,PSA3,Adam Rogers Park,FY06Q1,0.508,Basketball Court,Bernal Hts RC  Basketball Courts,500 Moultrie St,CA,94110,,3530.32840865,244.46992476,0.08104551,-122.41633421,37.73824803
47,PSA3,Hilltop Park,FY06Q1,0.63,Basketball Court,Victoria Manalo DravesBsktball Crts,Folsom & Sherman St,CA,94103,,7339.78761317,361.08977147,0.16849901,-122.40660765,37.77738554
103,PSA1,Lincoln Park,FY06Q1,0.694,Basketball Court,Walter Haas Basketball Courts,Addison & Farnum,CA,94131,,4080.7046888,264.14249975,0.09368046,-122.43480806,37.74043202
48,PSA3,India Basin Shoreline Park,FY06Q1,0.734,Basketball Court,Boeddeker Park Basketball Courts,295 Eddy St,CA,94102,,2591.24361113,203.78512047,0.05948701,-122.41243003,37.78432754
189,PSA3,Ridgetop Plaza,FY06Q1,0.76,Clubhouse,Junipero Serra Clubhouse,300 Stonecrest Dr,CA,94132,1,1809.03202669,222.38907338,0.04152983,-122.47409921,37.7250867
91,PSA4,West Sunset Playground,FY06Q1,0.942,Basketball Court,Presidio Heights Basketball Courts,Clay & Walnut St,CA,94118,,6165.96933931,320.01983988,0.14155174,-122.44947936,37.78852017
59,PSA6,Mission Recreation Center,FY06Q1,1,Basketball Court,Gilman Basketball Courts,Gilman Ave & Griffith,CA,94124,,4238.10241446,269.28905277,0.09729383,-122.38856943,37.71697286
130,PSA1,Helen Wills Playground,FY06Q1,0.918,Restroom,GGP4 Rose Garden Bathroom,Stanyan & Great Hwy,CA,94117,,1693.3252617,167.49628446,0.03887355,-122.47201293,37.77151676
24,PSA6,Garfield Square,FY06Q1,0.705,Ball Field,McCoppin Ball Fields,24th & Taraval,CA,94116,,77985.770037,1152.13806504,1.7903141,-122.47987668,37.74401981
50,PSA6,James Rolph Jr. Playground,FY06Q1,0.855,Basketball Court,Cabrillo Basketball Courts,38th Ave  &  Cabrillo,CA,94121,,7295.76407392,488.94951375,0.16748837,-122.49870696,37.77278236
49,PSA6,Potrero del Sol Park,FY06Q1,0.841,Basketball Court,Buchanan St. Mall Basketball Crts,Buchanan & Grove,CA,94102,,2246.38160812,192.13835784,0.05157003,-122.42861057,37.77961618
14,PSA3,Lessing-Sears Mini Park,FY06Q1,0.615,Ball Field,GGP2 Big Rec Ball Fields,Stanyan & Great Hwy,CA,94117,,338875.045245,2546.55290335,7.7795317,-122.46453564,37.76739107
15,PSA3,Cayuga Playground,FY06Q1,0.815,Ball Field,Holly ball fields,Holly Park Circle,CA,94110,,41701.5094901,811.86392619,0.95733876,-122.41988213,37.73755457
25,PSA3,Alice Chalmers Playground,FY06Q1,0.925,Ball Field,Miraloma ball fields,Omar & Sequoia Way,CA,94127,,47658.9072215,875.96078663,1.09410234,-122.4493957,37.73853897
53,PSA2,McKinley Square,FY06Q1,0.905,Basketball Court,Basketball Courts,Washington & Mason St,CA,94108,,4599.31621875,285.19390368,0.10558619,-122.41204267,37.79411551
97,PSA1,Argonne Playground,FY06Q1,0.926,Basketball Court,South Sunset Basketball Courts,40th Ave & Vicente St,CA,94116,,12719.8516509,451.64667789,0.29200878,-122.49851407,37.73781117
155,PSA1,Muriel Leff Mini Park,FY06Q1,0.974,Clubhouse,Argonne: Clubhouse,18th Ave  &  Geary Blvd,CA,94121,1,1629.31048702,213.18216445,0.03740397,-122.47766682,37.77958789
154,PSA1,Joseph Conrad Mini Park,FY06Q1,0.902,,,,,,,,,,,
148,PSA1,Michelangelo Playground,FY06Q1,0.959,Restroom,St Mary's Square Bathrooms,California St & Grant St,CA,94108,1,448.57654648,94.36105014,0.01029794,-122.40507908,37.79171479
146,PSA1,Hyde-Vallejo Mini Park,FY06Q1,1,Restroom,Parkside Square Bathrooms,28th Ave & Vicente,CA,94116,1,402.59159726,84.4622899,0.00924227,-122.48370969,37.73833246
123,PSA2,Sgt. John Macaulay Park,FY06Q1,0.762,Restroom,GGP1 Horseshoe Pits Bathroom,Stanyan & Great Hwy,CA,94117,,349.75651841,77.8627313,0.00802934,-122.45598222,37.77374756
168,PSA2,Tenderloin Children's Recreation Center,FY06Q1,0.935,Activity Center,GGP2 Bowling Green Clubhouse,Stanyan & Great Hwy,CA,94117,1,2741.29987025,210.53731947,0.06293184,-122.45896828,37.76859841
83,PSA4,Sigmund Stern Recreation Grove,FY06Q1,0.916,Basketball Court,Moscone Basketball Courts,1800 Chestnut St,CA,94123,,10434.7946896,594.32577847,0.23955088,-122.43314293,37.80208974
90,PSA4,J. P. Murphy Playground,FY06Q1,1,Basketball Court,Potrero Hill Basketball Courts,801 Arkansas St,CA,94107,,5816.79070531,317.60049201,0.13353567,-122.39716361,37.75692591
94,GGP,Golden Gate Park,FY06Q1,0.877,Basketball Court,Selby/Palou Basketball Courts,Palou & Selby,CA,94124,,552.10783524,94.49046177,0.0126747,-122.40020504,37.73900113
99,PSA1,Rochambeau Playground,FY06Q1,1,Basketball Court,States Street Basketball Courts,States St,CA,94114,,7840.89794171,361.90425414,0.18000297,-122.43813886,37.76370219
98,PSA1,DuPont Courts,FY06Q1,0.873,Basketball Court,St Mary's Basketball Courts,Murray & Justin Dr,CA,94112,,7571.2012257,375.26346507,0.17381156,-122.42106171,37.73337066
100,PSA1,Richmond Playground,FY06Q1,0.948,Basketball Court,Sunnyside Basketball Courts,Terisita Ave & Melrose,CA,94127,,5666.1323908,304.64579288,0.13007702,-122.44688777,37.73295943
138,PSA1,Justin Herman-Embarcadero Plaza,FY06Q1,0.9,Restroom,Lafayette Park Restrooms,Washington & Laguna St,CA,94115,1,787.52702629,120.22695371,0.01807921,-122.42812055,37.79170701
135,PSA2,Union Square,FY06Q1,1,,,,,,,,,,,
120,PSA2,Golden Gate-Steiner Mini Park,FY06Q1,0.579,,,,,,,,,,,
121,PSA2,Buchanan Street Mall,FY06Q1,0.68,,,,,,,,,,,
115,PSA2,Koshland Park,FY06Q1,0.872,Restroom,DuPont Courts Restrooms,30th Ave & Clement,CA,94121,1,291.65593654,75.7329909,0.00669553,-122.49084001,37.78287907
67,PSA5,Sunnyside Playground,FY06Q1,0.643,Basketball Court,Jackson Basketball Courts,17th & Arkansas St,CA,94107,,9047.84159772,398.94305154,0.20771069,-122.39976107,37.76385141
28,PSA3,John McLaren Park,FY06Q1,0.84,Ball Field,Parkside ball fields,28th Ave & Vicente,CA,94116,,104340.628735,1513.14170986,2.39534082,-122.48430123,37.73838541
28,PSA3,John McLaren Park,FY06Q1,0.593,Ball Field,Parkside ball fields,28th Ave & Vicente,CA,94116,,104340.628735,1513.14170986,2.39534082,-122.48430123,37.73838541
28,PSA3,John McLaren Park,FY06Q1,0.85,Ball Field,Parkside ball fields,28th Ave & Vicente,CA,94116,,104340.628735,1513.14170986,2.39534082,-122.48430123,37.73838541
26,PSA3,Kelloch Velasco Mini Park,FY06Q1,0.889,Ball Field,Moscone ball fields,1800 Chestnut Street,CA,94123,,209906.117877,2000.31810716,4.81880068,-122.43287515,37.80222739
127,PSA2,Cottage Row Mini Park,FY06Q1,0.735,Restroom,GGP2 Japanese Tea Garden Women's Bathrm,Stanyan & Great Hwy,CA,94117,,390.48083205,116.41633881,0.00896424,-122.46944064,37.7704745
106,PSA2,Beideman-O'Farrell Mini Park,FY06Q1,0.778,Restroom,Rogers: Restrooms,Ingalls & Oakdale,CA,94124,1,541.23947174,94.82141139,0.0124252,-122.38372054,37.73087851
27,PSA3,Visitacion Valley Playground,FY06Q1,0.978,Ball Field,Ocean View Ball Fields,Capitol & Montana Street,CA,94112,,135493.229462,2241.10323087,3.11050899,-122.45760265,37.71549811
40,PSA3,Joseph Lee Recreation Center,FY06Q1,0.413,Ball Field,Youngblood Coleman Ball Fields,Mendell & Galvez,CA,94124,,47940.276475,980.14656017,1.10056171,-122.384341,37.73860918
29,PSA3,Excelsior Playground,FY06Q1,0.978,Ball Field,Palega ball fields,500 Felton,CA,94134,,84054.7028935,1281.833866,1.92963818,-122.40925318,37.72949294
131,PSA1,Allyne Park,FY06Q1,1,Restroom,GGP1 Sharon Meadow Bathroom,Sharon Meadow,CA,94117,,1925.5028652,201.75352464,0.04420364,-122.45891022,37.76818303
128,PSA1,Lafayette Park,FY06Q1,0.58,Restroom,GGP1 Panhandle Restroom Bldg,Stanyan & Great Hwy,CA,94117,1,1727.51549691,166.4628948,0.03965846,-122.44757749,37.77208711
112,PSA1,Yacht Harbor & Marina Green,FY06Q1,0.792,,,,,,,,,,,
109,PSA1,Presidio Heights Playground,FY06Q1,0.932,Restroom,Balboa Park East Bathrooms,Ocean & San Jose,CA,94112,,1008.10053654,127.05939092,0.0231429,-122.44423221,37.72518276
126,PSA2,Japantown Peace Plaza,FY06Q1,0.875,Restroom,GGP1 Conservatory Bathroom,Stanyan & Great Hwy,CA,94117,,1292.9298713,145.49034208,0.0296817,-122.46077534,37.77259623
125,PSA2,Hamilton Recreation Center,FY06Q1,0.468,Restroom,GGP6 Chain of Lakes Bathroom,Stanyan & Great Hwy,CA,94117,,855.37671883,118.28860667,0.01963683,-122.50180553,37.76797053
132,PSA1,Moscone Recreation Center,FY06Q2,0.89,Restroom,GGP5 Hellman Hollow Restrooms (frmrly Speedway M,Stanyan & Great Hwy,CA,94117,,1003.96155916,126.82863382,0.02304788,-122.4846926,37.76952984
81,PSA5,Buena Vista Park,FY06Q2,0.955,Basketball Court,Mission Dolores Basketball Courts,19th & Dolores St,CA,94110,,6114.33862854,324.16947022,0.14036646,-122.42739885,37.76103393
195,PSA5,Peixotto Playground,FY06Q2,0.983,Clubhouse,McCoppin Square Clubhouse,24th & Taraval,CA,94116,1,1220.97237056,186.16244717,0.02802978,-122.48075768,37.743533
79,PSA5,Saturn Street Steps,FY06Q2,0.786,,,,,,,,,,,
8,PSA5,Douglass Playground,FY06Q2,0.717,Ball Field,Crocker Amazon - ball fields,Moscow & Italy Streets,CA,94112,,515443.479217,5506.26766406,11.8330014,-122.43050192,37.71451183
172,PSA1,Richmond Recreation Center,FY06Q2,1,Fieldhouse,GGP1 Kezar Fieldhouse S,755 Stanyan,CA,94117,,2260.34423283,232.58714591,0.05189057,-122.45598582,37.76620435
156,PSA1,10th Avenue-Clement Mini Park,FY06Q2,0.854,Clubhouse,Boeddeker Park Clubhouse,295 Eddy St,CA,94102,2,3737.61853707,341.73327562,0.08580426,-122.41181591,37.78431772
96,PSA1,Fulton Playground,FY06Q2,0.902,Basketball Court,Friend Basketball Courts,270 6th St,CA,94103,,6206.83755454,325.53343636,0.14248995,-122.40664464,37.77871683
201,PSA6,Prentiss Mini Park,FY06Q2,0.875,Clubhouse,Peixotto Clubhouse,15th St & Roosevelt,CA,94114,1,2206.75911407,197.19342464,0.05066042,-122.43763555,37.7656256
31,PSA6,St. Mary's Recreation Center,FY06Q2,0.881,Ball Field,Raymond Kimbell ball fields,Steiner & O'Farrell Street,CA,94115,,104365.61148,1535.71717739,2.39591435,-122.43509741,37.78270623
33,PSA6,Bernal Heights Recreation Center,FY06Q2,0.75,Ball Field,South Sunset Ball Fields,40th Ave & Vicente St,CA,94116,,97238.4642689,1772.8081394,2.23229691,-122.49845826,37.73710357
22,PSA5,Upper Noe Recreation Center,FY06Q2,0.667,Ball Field,Laurel Ball Fields,Euclid & Collins Streets,CA,94118,,24075.7227053,622.98768297,0.55270475,-122.45087374,37.78391437
149,PSA1,Telegraph Hill/Pioneer Park,FY06Q2,0.945,Restroom,States Street Restrooms,States St,CA,94114,1,298.62389649,80.84643246,0.00685549,-122.43856985,37.76376486
147,PSA1,Washington Square,FY06Q2,0.939,Restroom,Portsmouth Square Bathrooms,Washington & Walter Lum Pl,CA,94111,4,858.29910606,133.31310475,0.01970392,-122.40560121,37.79460147
204,PSA1,Broadway Tunnel East Mini Park,FY06Q2,0.45,Clubhouse,Portsmouth Square Clubhouse,Washington & Kearny St,CA,94111,,2363.62486901,209.84309912,0.05426158,-122.4052788,37.79502267
152,PSA1,Chestnut-Kearny Open Space,FY06Q2,1,Restroom,Marina Green Bathrooms West,Marina Blvd,CA,94123,,1089.89674304,172.86276135,0.02502069,-122.44826807,37.80575328
150,PSA1,Joe DiMaggio North Beach Playground,FY06Q2,0.99,Restroom,Washington Square Bathrooms,Filbert & Stockton & Columbus,CA,94133,1,287.27759197,83.94499361,0.00659501,-122.41063078,37.80105784
18,PSA4,Brooks Park,FY06Q2,0.912,Ball Field,Rolph ball fields,Potrero & Cesar Chavez Street,CA,94110,,84562.7610124,1302.17308429,1.94130164,-122.4061396,37.74951809
16,PSA4,Randolph-Bright Mini Park,FY06Q2,0.767,,,,,,,,,,,
196,PSA4,Head-Brotherhood Mini Park,FY06Q2,0.939,Maintenance Facility,Michelangelo Gardeners Shed,Greenwich & Jones,CA,94133,,249.74198702,68.36951953,0.00573331,-122.41678045,37.80126925
137,PSA1,Collis P. Huntington Park,FY06Q2,0.935,,,,,,,,,,,
13,PSA4,Junipero Serra Playground,FY06Q2,0.975,Ball Field,Glen ball fields,Diamond & Farnum Street,CA,94131,,124520.486259,1891.67544541,2.85860846,-122.44059154,37.73600816
187,PSA6,Parque Ninos Unidos,FY06Q2,0.867,Clubhouse,Louis Sutter Clubhouse,Wayland & Yale St,CA,94134,,2487.20644945,176.85402932,0.05709863,-122.41437425,37.72238701
51,PSA6,24th Street-York Mini Park,FY06Q2,0.875,Basketball Court,Larsen Basketball Courts,19th Ave & Vicente,CA,94116,,6939.12054321,352.4466055,0.15930093,-122.47610361,37.73980229
60,PSA6,Jose Coronado Playground,FY06Q2,0.746,Basketball Court,GGP1 Panhandle Basketball Courts,Stanyan & Great Hwy,CA,94117,,4645.55364528,279.46531331,0.10664766,-122.44838047,37.77230438
95,PSA1,Cabrillo Playground,FY06Q2,0.963,Basketball Court,Silver Terrace Basketball Courts,Thornton & Bayshore,CA,94124,,6430.65812057,324.46297144,0.14762819,-122.40237246,37.73280967
107,PSA1,Laurel Hill Playground,FY06Q2,0.913,Restroom,Alamo: Restrooms,Hayes & Steiner,CA,94117,1,479.58760374,96.29146286,0.01100986,-122.43430821,37.776068
102,PSA1,Mountain Lake Park,FY06Q2,0.811,Basketball Court,Upper Noe Basketball Courts,Day & Sanchez St,CA,94131,,5471.93703318,304.92673649,0.12561889,-122.42795075,37.74226468
166,PSA1,Julius Kahn Playground,FY06Q2,0.939,Clubhouse,Gilman Clubhouse,Gilman Ave & Griffith,CA,94124,1,3479.96936258,236.52381605,0.07988942,-122.38832992,37.71682579
108,PSA2,Bush-Broderick Mini Park,FY06Q2,0.514,Restroom,Alta: Restrooms,Jackson & Steiner,CA,94115,1,213.12065831,60.72910794,0.0048926,-122.43815497,37.7912412
124,PSA2,Raymond Kimbell Playground,FY06Q2,0.593,Restroom,GGP2 Big Rec Bathroom,Stanyan & Great Hwy,CA,94117,1,1854.90428247,185.77869941,0.04258291,-122.46536323,37.76853068
17,PSA4,Merced Heights Playground,FY06Q2,0.824,Ball Field,Jackson ball fields,17th & Arkansas Street,CA,94107,,147298.316637,1631.63027581,3.38151758,-122.39966866,37.7644047
10,PSA4,Lake Merced Park,FY06Q2,0.809,Ball Field,Eureka Valley Ball Fields,100 Collingwood,CA,94114,,32412.1511184,705.06018676,0.74408358,-122.4366393,37.7595074
129,PSA1,Alta Plaza,FY06Q2,0.956,Restroom,GGP5 Polo Field Bathroom,Stanyan & Great Hwy,CA,94117,1,2269.8466994,199.66123781,0.05210872,-122.49278049,37.76678507
151,PSA1,Alice Marble Tennis Courts,FY06Q2,1,Restroom,Marina Green Bathrooms East,Marina Blvd,CA,94123,1,494.31070948,93.51395156,0.01134786,-122.43453075,37.80646143
9,PSA4,Rolph Nicol Playground,FY06Q2,0.93,Dog Play Area,Douglass dog play area,26th & Douglass Street,CA,94114,,70655.3372339,1153.01964642,1.62202984,-122.43889466,37.74674101
68,PSA4,West Portal Playground,FY06Q2,0.927,Basketball Court,James Rolph Jr Basketball Courts,Potrero & Cesar Chavez St,CA,94110,,7643.29521634,509.15403411,0.17546662,-122.40654275,37.75007779
70,PSA5,Miraloma Playground,FY06Q2,0.685,Basketball Court,Julius Kahn Basketball Courts,West Pacific Ave & Spruce St,CA,94118,,5049.66417562,295.52117196,0.1159248,-122.45432447,37.7912172
72,PSA5,Noe Valley Courts,FY06Q2,0.851,Basketball Court,Kelloch Velasco Basketball Courts,Kelloch & Velasco St,CA,94134,,8317.7788332,532.84981018,0.19095069,-122.41281406,37.70844554
141,PSA1,Portsmouth Square,FY06Q2,0.886,Restroom,Lower Great Hwy Wawona Bathrooms,Great Hwy & Noriega,CA,94122,1,3391.88708734,1046.45121399,0.07786732,-122.50634897,37.73640946
89,PSA4,Golden Gate Heights Park,FY06Q2,0.839,Basketball Court,Palega Basketball Courts,500 Felton,CA,94134,,7360.71353371,362.13436638,0.16897941,-122.41004368,37.72889564
165,PSA3,Hunters Point Recreation Center,FY06Q2,0.81,Clubhouse,Fulton Clubhouse,27th Ave & Fulton St,CA,94121,1,1324.89865642,192.82184031,0.03041561,-122.48689338,37.77354959
45,PSA3,Youngblood Coleman Playground,FY06Q2,0.667,Basketball Court,Argonne: Basketball,18th Ave  &  Geary Blvd,CA,94121,,4209.02369353,268.01064089,0.09662627,-122.47793647,37.77928896
61,PSA6,Mission Playground,FY06Q2,0.943,Basketball Court,Grattan Basketball Courts,1180 Stanyan St,CA,94117,,7371.65644109,350.30567378,0.16923062,-122.45151797,37.76245816
119,PSA2,Margaret S. Hayward Playground,FY06Q2,0.908,Restroom,GGP3 Arboretum South Restrooms,Stanyan & Great Hwy,CA,94117,,330.07628624,78.2887399,0.00757754,-122.46834526,37.76680021
7,PSA5,George Christopher Playground,FY06Q2,0.879,Ball Field,Larsen Ball Fields,19th Avenue & Vicente,CA,94116,,20560.1826994,567.35952328,0.47199874,-122.47602952,37.74084587
94,GGP,Golden Gate Park,FY06Q2,0.847,Basketball Court,Selby/Palou Basketball Courts,Palou & Selby,CA,94124,,552.10783524,94.49046177,0.0126747,-122.40020504,37.73900113
30,PSA3,Palega Recreation Center,FY06Q2,0.593,Ball Field,Potrero Hill ball fields,801 Arkansas Street,CA,94107,,140706.045878,1431.23966482,3.23017926,-122.39699911,37.75553944
104,PSA2,Grattan Playground,FY06Q2,0.684,Basketball Court,West Sunset Basketball Courts,3223 Ortega St & 39th Ave,CA,94116,,7821.63435515,370.89819061,0.17956074,-122.49777649,37.75025416
42,PSA3,Little Hollywood Park,FY06Q2,0.898,Basketball Court,Chalmers: Basketball,670 Brunswick & Lowell Roemer,CA,94112,,8546.61023555,381.78457715,0.19620396,-122.44714807,37.70979694
1,PSA5,Glen Park,FY06Q2,0.99,Ball Field,Chalmers: Ball Fields,670 Brunswick & Lowell Roemer,CA,94112,,43710.0184176,856.15180694,1.00344796,-122.44643687,37.70989615
34,PSA6,Coleridge Mini Park,FY06Q2,0.941,Ball Field,St Mary's Ball Fields,Murray & Justin Dr,CA,94112,,84078.5528853,1213.73295736,1.9301857,-122.42088341,37.7344511
52,PSA2,Potrero Hill Recreation Center,FY06Q2,0.93,Basketball Court,Cayuga Basketball Courts,Cayuga & Naglee St,CA,94112,,7743.77720525,358.05812772,0.17777337,-122.45013946,37.71405211
23,PSA6,Juri Commons,FY06Q2,0.872,Ball Field,James Lang Ball Fields,1016 Laguna,CA,94102,,98547.664829,1395.6175974,2.26235214,-122.42465985,37.78097316
94,GGP,Golden Gate Park,FY06Q2,0.545,Basketball Court,Selby/Palou Basketball Courts,Palou & Selby,CA,94124,,552.10783524,94.49046177,0.0126747,-122.40020504,37.73900113
122,PSA2,Jefferson Square,FY06Q2,0.848,Restroom,GGP4 Mothers Meadow Bathroom,M.L. King Dr/19th Ave,CA,94117,,1381.33674553,154.49024443,0.03171126,-122.47668133,37.76637364
164,PSA3,Crocker Amazon Playground,FY06Q2,0.835,Clubhouse,Excelsior Clubhouse,Russia Ave & Madrid,CA,94112,1,2747.3730508,278.83978327,0.06307126,-122.43361483,37.72024888
159,PSA5,Cayuga-Lamartine Mini Park,FY06Q2,0.531,Clubhouse,Willie Woo Woo Wong Clubhouse,850 Sacramento St,CA,94108,2,3403.83588163,243.05796446,0.07814163,-122.40690115,37.79359973
144,PSA1,Washington-Hyde Mini Park,FY06Q2,0.925,Restroom,Mountain Lake Restrooms,12th Ave & Lake St,CA,94118,1,907.67914558,157.99653113,0.02083753,-122.47175615,37.78697309
44,PSA3,Gilman Playground,FY06Q2,0.764,Basketball Court,Rossi Basketball Courts,Arguello & Anza,CA,94118,,5991.51196238,319.89579462,0.13754674,-122.45738243,37.7792252
177,PSA3,Visitacion Valley Greenway,FY06Q2,0.976,,,,,,,,,,,
177,PSA3,Visitacion Valley Greenway,FY06Q2,1,,,,,,,,,,,
82,PSA4,Pine Lake Park,FY06Q2,0.64,Basketball Court,Mission PG Basketball Court,19th & Linda,CA,94110,,5620.72826355,309.7624937,0.12903468,-122.42257415,37.75924429
93,PSA4,Sunset Playground,FY06Q2,0.97,Basketball Court,Rochambeau Basketball Courts,24th Ave & Lake,CA,94121,,11519.3302359,640.89995279,0.26444849,-122.4846026,37.78477532
84,PSA4,Parkside Square,FY06Q2,0.487,Basketball Court,Noe Valley Courts Basketball Courts,24th & Douglass St,CA,94114,,4366.99484314,273.77967126,0.10025281,-122.43903453,37.75155961
86,PSA4,Carl Larsen Park,FY06Q2,0.256,Basketball Court,Ocean View Basketball Courts,Capitol & Montana St,CA,94112,,5572.02031431,311.98222779,0.1279165,-122.45670775,37.71633478
158,PSA5,Joost-Baden Mini Park,FY06Q2,0.947,Clubhouse,Cayuga Clubhouse,Cayuga & Naglee St,CA,94112,1,3211.76397627,233.43396958,0.07373225,-122.44979162,37.71423603
94,GGP,Golden Gate Park,FY06Q2,0.325,Basketball Court,Selby/Palou Basketball Courts,Palou & Selby,CA,94124,,552.10783524,94.49046177,0.0126747,-122.40020504,37.73900113
94,GGP,Golden Gate Park,FY06Q2,0.489,Basketball Court,Selby/Palou Basketball Courts,Palou & Selby,CA,94124,,552.10783524,94.49046177,0.0126747,-122.40020504,37.73900113
56,PSA2,South Park,FY06Q2,0.923,Basketball Court,Duboce Park Basketball Courts,Duboce & Scott St,CA,94117,,4241.34373459,277.37614501,0.09736824,-122.4342058,37.76943315
118,PSA2,Joseph L. Alioto Performing Arts Piazza,FY06Q2,0.965,,,,,,,,,,,
192,PSA2,Turk-Hyde Mini Park,FY06Q2,0.929,Activity Center,Lincoln Park Golf Course Clubhouse,34th Ave & Clement,CA,94121,,8288.49405798,571.17541938,0.1902784,-122.49430875,37.78226619
54,PSA2,Jackson Playground,FY06Q2,0.92,Basketball Court,Jose Coronado Basketball Courts,21st & Folsom,CA,94110,,6941.84702357,354.07131837,0.15936352,-122.41525922,37.75750603
39,PSA3,Silver Terrace Playground,FY06Q2,0.595,Ball Field,West Sunset Ball Fields,3223 Ortega St & 39th Ave,CA,94116,,222407.848022,3633.30555762,5.10580206,-122.4986525,37.74905447
188,PSA3,Palou-Phelps Park,FY06Q2,0.75,Clubhouse,Julius Kahn Clubhouse,West Pacific Ave & Spruce St,CA,94118,1,1443.45118905,163.62705969,0.03313721,-122.45373436,37.79124744
157,PSA3,Selby-Palou Mini Park,FY06Q2,0.83,Clubhouse,Cabrillo Clubhouse,38th Ave  &  Cabrillo,CA,94121,1,1379.55095637,194.20797613,0.03167026,-122.49845418,37.77309962
38,PSA3,Bay View Playground,FY06Q2,0.857,Ball Field,Visitacion Valley Ball Fields,Cora & Leland St,CA,94134,,53257.8999859,886.43813687,1.22263804,-122.40908358,37.71227452
80,PSA5,Corona Heights,FY06Q2,0.976,Basketball Court,Miraloma Basketball Courts,Omar & Sequoia Way,CA,94127,,6480.24350968,333.89334191,0.14876652,-122.44913152,37.73905066
200,PSA5,States Street Playground,FY06Q2,1,Clubhouse,Parque Ninos Unidos Clubhouse,23rd & Treat St,CA,94110,,2043.33632629,288.86182024,0.04690874,-122.41389356,37.75431392
32,PSA6,Holly Park,FY06Q2,0.811,Ball Field,Silver Terrace Ball Fields,Thornton & Bayshore,CA,94124,,144641.95196,2286.76352614,3.3205356,-122.40329777,37.73298657
94,GGP,Golden Gate Park,FY06Q2,0.485,Basketball Court,Selby/Palou Basketball Courts,Palou & Selby,CA,94124,,552.10783524,94.49046177,0.0126747,-122.40020504,37.73900113
94,GGP,Golden Gate Park,FY06Q2,0.488,Basketball Court,Selby/Palou Basketball Courts,Palou & Selby,CA,94124,,552.10783524,94.49046177,0.0126747,-122.40020504,37.73900113
111,PSA1,Palace of Fine Arts,FY06Q2,0.957,,,,,,,,,,,
182,PSA2,Fillmore-Turk Mini Park,FY06Q2,0.909,Clubhouse,J. P. Murphy Clubhouse,1960 9th Ave,CA,94116,2,2599.03414942,236.37915801,0.05966585,-122.46524302,37.75156572
134,PSA2,Father Alfred E. Boeddeker Park,FY06Q2,0.918,Restroom,Holly Park Bathrooms,Holly Park Cir,CA,94110,,446.49970338,92.08904239,0.01025026,-122.42057329,37.73711761
75,PSA5,Eureka Valley Recreation Center,FY06Q2,1,Basketball Court,Little Hollywood Basketball Courts,Lathrop & Tocoloma,CA,94134,,3785.5995273,257.52762314,0.08690575,-122.39780481,37.71007449
73,PSA5,Seward Mini Park,FY06Q2,1,Basketball Court,Koshland Park Basketball Courts,Page & Buchanan,CA,94102,,1589.21913452,151.93653184,0.0364836,-122.42699192,37.77327797
94,GGP,Golden Gate Park,FY06Q2,0.849,Basketball Court,Selby/Palou Basketball Courts,Palou & Selby,CA,94124,,552.10783524,94.49046177,0.0126747,-122.40020504,37.73900113
94,GGP,Golden Gate Park,FY06Q2,0.717,Basketball Court,Selby/Palou Basketball Courts,Palou & Selby,CA,94124,,552.10783524,94.49046177,0.0126747,-122.40020504,37.73900113
94,GGP,Golden Gate Park,FY06Q2,0.341,Basketball Court,Selby/Palou Basketball Courts,Palou & Selby,CA,94124,,552.10783524,94.49046177,0.0126747,-122.40020504,37.73900113
94,GGP,Golden Gate Park,FY06Q2,0.674,Basketball Court,Selby/Palou Basketball Courts,Palou & Selby,CA,94124,,552.10783524,94.49046177,0.0126747,-122.40020504,37.73900113
94,GGP,Golden Gate Park,FY06Q2,0.377,Basketball Court,Selby/Palou Basketball Courts,Palou & Selby,CA,94124,,552.10783524,94.49046177,0.0126747,-122.40020504,37.73900113
94,GGP,Golden Gate Park,FY06Q2,0.333,Basketball Court,Selby/Palou Basketball Courts,Palou & Selby,CA,94124,,552.10783524,94.49046177,0.0126747,-122.40020504,37.73900113
94,GGP,Golden Gate Park,FY06Q2,0.61,Basketball Court,Selby/Palou Basketball Courts,Palou & Selby,CA,94124,,552.10783524,94.49046177,0.0126747,-122.40020504,37.73900113
153,PSA1,Francisco Park,FY06Q2,1,Clubhouse,Chalmers: Clubhouse,670 Brunswick & Lowell Roemer,CA,94112,1,3156.83268943,250.24551991,0.0724712,-122.4470315,37.70950787
142,PSA1,Maritime Plaza,FY06Q2,1,,,,,,,,,,,
143,PSA1,Sue Bierman Park,FY06Q2,0.865,,,,,,,,,,,
140,PSA1,Betty Ann Ong Chinese Recreation Center,FY06Q2,0.83,Restroom,Lower Great Highway Taraval Restrooms,Great Hwy & Taraval,CA,94122,,5215.72066967,489.53864192,0.11973695,-122.50704685,37.7413345
105,PSA1,Angelo J. Rossi Playground,FY06Q2,0.902,Basketball Court,YoungbloodColeman Basketball Courts,Mendell & Galvez,CA,94124,,10461.2418713,450.06419153,0.24015803,-122.38380193,37.73816799
116,PSA2,Hayes Valley Playground,FY06Q2,0.644,,,,,,,,,,,
114,PSA2,Page-Laguna Mini Park,FY06Q2,0.75,Maintenance Facility,Huntington Park Maint Bldgs,California & Taylor,CA,94108,1,299.70694907,64.77327613,0.00688035,-122.4122741,37.7920544
145,PSA1,Ina Coolbrith Mini Park,FY06Q2,0.758,Restroom,Noe Valley Courts Bathrooms,24th & Douglass St,CA,94114,1,391.33209888,98.01244807,0.00898378,-122.43921804,37.75148479
10,PSA4,Lake Merced Park,FY06Q3,0.854,Ball Field,Eureka Valley Ball Fields,100 Collingwood,CA,94114,,32412.1511184,705.06018676,0.74408358,-122.4366393,37.7595074
18,PSA4,Brooks Park,FY06Q3,0.88,Ball Field,Rolph ball fields,Potrero & Cesar Chavez Street,CA,94110,,84562.7610124,1302.17308429,1.94130164,-122.4061396,37.74951809
160,PSA4,Brotherhood-Chester Mini Park,FY06Q3,0.5,Clubhouse,Jose Coronado Clubhouse,21st & Folsom,CA,94110,,1719.76471146,169.15109881,0.03948052,-122.41506007,37.75773343
120,PSA2,Golden Gate-Steiner Mini Park,FY06Q3,0.885,,,,,,,,,,,
59481,PSA2,Patricia's Green in Hayes Valley,FY06Q3,1,,,,,,,,,,,
155,PSA1,Muriel Leff Mini Park,FY06Q3,0.969,Clubhouse,Argonne: Clubhouse,18th Ave  &  Geary Blvd,CA,94121,1,1629.31048702,213.18216445,0.03740397,-122.47766682,37.77958789
146,PSA1,Hyde-Vallejo Mini Park,FY06Q3,0.927,Restroom,Parkside Square Bathrooms,28th Ave & Vicente,CA,94116,1,402.59159726,84.4622899,0.00924227,-122.48370969,37.73833246
85,PSA4,South Sunset Playground,FY06Q3,0.917,Basketball Court,Joe Dimaggio Basketball Courts,651 Lombard St,CA,94133,,8238.44653742,368.89918681,0.18912946,-122.41205791,37.8024484
4,PSA5,Walter Haas Playground,FY06Q3,0.847,Ball Field,Balboa ball fields,Ocean & San Jose,CA,94112,,223812.895502,5432.1560005,5.13805764,-122.44532438,37.72402602
66,PSA5,Balboa Park,FY06Q3,0.776,Basketball Court,J. P. Murphy Basketball Courts,1960 9th Ave,CA,94116,,5492.96238447,305.76962535,0.12610157,-122.46492925,37.75169429
66,PSA5,Balboa Park,FY06Q3,0.443,Basketball Court,J. P. Murphy Basketball Courts,1960 9th Ave,CA,94116,,5492.96238447,305.76962535,0.12610157,-122.46492925,37.75169429
15,PSA3,Cayuga Playground,FY06Q3,0.904,Ball Field,Holly ball fields,Holly Park Circle,CA,94110,,41701.5094901,811.86392619,0.95733876,-122.41988213,37.73755457
29,PSA3,Excelsior Playground,FY06Q3,0.913,Ball Field,Palega ball fields,500 Felton,CA,94134,,84054.7028935,1281.833866,1.92963818,-122.40925318,37.72949294
99,PSA1,Rochambeau Playground,FY06Q3,0.958,Basketball Court,States Street Basketball Courts,States St,CA,94114,,7840.89794171,361.90425414,0.18000297,-122.43813886,37.76370219
109,PSA1,Presidio Heights Playground,FY06Q3,0.853,Restroom,Balboa Park East Bathrooms,Ocean & San Jose,CA,94112,,1008.10053654,127.05939092,0.0231429,-122.44423221,37.72518276
26,PSA3,Kelloch Velasco Mini Park,FY06Q3,0.816,Ball Field,Moscone ball fields,1800 Chestnut Street,CA,94123,,209906.117877,2000.31810716,4.81880068,-122.43287515,37.80222739
98,PSA1,DuPont Courts,FY06Q3,0.864,Basketball Court,St Mary's Basketball Courts,Murray & Justin Dr,CA,94112,,7571.2012257,375.26346507,0.17381156,-122.42106171,37.73337066
94,GGP,Golden Gate Park,FY06Q3,0.983,Basketball Court,Selby/Palou Basketball Courts,Palou & Selby,CA,94124,,552.10783524,94.49046177,0.0126747,-122.40020504,37.73900113
126,PSA2,Japantown Peace Plaza,FY06Q3,0.958,Restroom,GGP1 Conservatory Bathroom,Stanyan & Great Hwy,CA,94117,,1292.9298713,145.49034208,0.0296817,-122.46077534,37.77259623
125,PSA2,Hamilton Recreation Center,FY06Q3,0.521,Restroom,GGP6 Chain of Lakes Bathroom,Stanyan & Great Hwy,CA,94117,,855.37671883,118.28860667,0.01963683,-122.50180553,37.76797053
27,PSA3,Visitacion Valley Playground,FY06Q3,0.949,Ball Field,Ocean View Ball Fields,Capitol & Montana Street,CA,94112,,135493.229462,2241.10323087,3.11050899,-122.45760265,37.71549811
195,PSA5,Peixotto Playground,FY06Q3,0.864,Clubhouse,McCoppin Square Clubhouse,24th & Taraval,CA,94116,1,1220.97237056,186.16244717,0.02802978,-122.48075768,37.743533
28,PSA3,John McLaren Park,FY06Q3,0.787,Ball Field,Parkside ball fields,28th Ave & Vicente,CA,94116,,104340.628735,1513.14170986,2.39534082,-122.48430123,37.73838541
139,PSA1,Willie Woo Woo Wong Playground,FY06Q3,0.881,Restroom,Lower Great Highway Judah Restrooms,Great Hwy & Noriega,CA,94122,1,1844.32326936,190.92887089,0.04234001,-122.5095536,37.76024004
121,PSA2,Buchanan Street Mall,FY06Q3,0.674,,,,,,,,,,,
127,PSA2,Cottage Row Mini Park,FY06Q3,0.806,Restroom,GGP2 Japanese Tea Garden Women's Bathrm,Stanyan & Great Hwy,CA,94117,,390.48083205,116.41633881,0.00896424,-122.46944064,37.7704745
28,PSA3,John McLaren Park,FY06Q3,0.683,Ball Field,Parkside ball fields,28th Ave & Vicente,CA,94116,,104340.628735,1513.14170986,2.39534082,-122.48430123,37.73838541
28,PSA3,John McLaren Park,FY06Q3,0.778,Ball Field,Parkside ball fields,28th Ave & Vicente,CA,94116,,104340.628735,1513.14170986,2.39534082,-122.48430123,37.73838541
28,PSA3,John McLaren Park,FY06Q3,0.617,Ball Field,Parkside ball fields,28th Ave & Vicente,CA,94116,,104340.628735,1513.14170986,2.39534082,-122.48430123,37.73838541
197,PSA5,Topaz Open Space,FY06Q3,0.727,Clubhouse,Midtown Terrace Clubhouse,Clarendon & Olympia Way,CA,94131,1,2250.31679961,210.45916064,0.05166037,-122.45586793,37.7515958
6,PSA5,Everson-Digby Lots,FY06Q3,1,Ball Field,Draves ball fields,Folsom & Sherman Street,CA,94103,,11064.1111754,406.20106045,0.25399806,-122.40552813,37.77649004
199,PSA6,Coso-Precita Mini Park,FY06Q3,0.733,Maintenance Facility,Mission Dolores Park Maintenance Building,19th & Dolores St,CA,94110,2,1172.48017632,140.29280117,0.02691655,-122.42685893,37.75962315
24,PSA6,Garfield Square,FY06Q3,0.863,Ball Field,McCoppin Ball Fields,24th & Taraval,CA,94116,,77985.770037,1152.13806504,1.7903141,-122.47987668,37.74401981
50,PSA6,James Rolph Jr. Playground,FY06Q3,0.77,Basketball Court,Cabrillo Basketball Courts,38th Ave  &  Cabrillo,CA,94121,,7295.76407392,488.94951375,0.16748837,-122.49870696,37.77278236
50,PSA6,James Rolph Jr. Playground,FY06Q3,0.777,Basketball Court,Cabrillo Basketball Courts,38th Ave  &  Cabrillo,CA,94121,,7295.76407392,488.94951375,0.16748837,-122.49870696,37.77278236
47,PSA3,Hilltop Park,FY06Q3,0.319,Basketball Court,Victoria Manalo DravesBsktball Crts,Folsom & Sherman St,CA,94103,,7339.78761317,361.08977147,0.16849901,-122.40660765,37.77738554
46,PSA3,Adam Rogers Park,FY06Q3,0.886,Basketball Court,Bernal Hts RC  Basketball Courts,500 Moultrie St,CA,94110,,3530.32840865,244.46992476,0.08104551,-122.41633421,37.73824803
181,PSA5,Diamond-Farnum Open Space,FY06Q3,1,Clubhouse,Helen Wills Clubhouse,Broadway & Larkin St,CA,94109,1,2949.7557894,264.36063209,0.06771735,-122.42060908,37.79567518
194,PSA5,29th Street-Diamond Open Space,FY06Q3,1,Clubhouse,MS Hayward Clubhouse,1016 Laguna,CA,94102,1,1365.16487066,192.08141295,0.03134,-122.42689899,37.78066418
63,PSA6,Mission Dolores Park,FY06Q3,0.874,Basketball Court,Head/Brotherhood Basketball Courts,Head St & Brotherhood Way,CA,94112,,5011.46119745,296.28422135,0.11504778,-122.46417493,37.7126251
191,PSA6,Kid Power Park,FY06Q3,1,Clubhouse,Laurel Hill Clubhouse,Euclid & Collins St,CA,94118,1,1340.11904178,184.90093265,0.03076502,-122.45120921,37.78370026
94,GGP,Golden Gate Park,FY06Q3,0.79,Basketball Court,Selby/Palou Basketball Courts,Palou & Selby,CA,94124,,552.10783524,94.49046177,0.0126747,-122.40020504,37.73900113
184,PSA1,Fay Park,FY06Q3,1,Clubhouse,James Rolph Jr Clubhouse,Potrero & Cesar Chavez St,CA,94110,1,2967.47364084,239.32732981,0.06812409,-122.4066724,37.74997723
112,PSA1,Yacht Harbor & Marina Green,FY06Q3,0.507,,,,,,,,,,,
112,PSA1,Yacht Harbor & Marina Green,FY06Q3,0.588,,,,,,,,,,,
176,PSA6,Mullen-Peralta Mini Park,FY06Q3,1,Activity Center,GGP1 Sharon Arts Studio,Sharon Meadow,CA,94117,2,8482.89796935,513.54125224,0.19474132,-122.4582116,37.76827229
94,GGP,Golden Gate Park,FY06Q3,0.846,Basketball Court,Selby/Palou Basketball Courts,Palou & Selby,CA,94124,,552.10783524,94.49046177,0.0126747,-122.40020504,37.73900113
94,GGP,Golden Gate Park,FY06Q3,0.548,Basketball Court,Selby/Palou Basketball Courts,Palou & Selby,CA,94124,,552.10783524,94.49046177,0.0126747,-122.40020504,37.73900113
100,PSA1,Richmond Playground,FY06Q3,0.767,Basketball Court,Sunnyside Basketball Courts,Terisita Ave & Melrose,CA,94127,,5666.1323908,304.64579288,0.13007702,-122.44688777,37.73295943
53,PSA2,McKinley Square,FY06Q3,0.87,Basketball Court,Basketball Courts,Washington & Mason St,CA,94108,,4599.31621875,285.19390368,0.10558619,-122.41204267,37.79411551
90,PSA4,J. P. Murphy Playground,FY06Q3,1,Basketball Court,Potrero Hill Basketball Courts,801 Arkansas St,CA,94107,,5816.79070531,317.60049201,0.13353567,-122.39716361,37.75692591
78,PSA5,Mt. Olympus,FY06Q3,0.696,Basketball Court,Michelangelo Basketball Courts,Greenwich & Jones,CA,94133,,4157.34091877,255.5544523,0.0954398,-122.41675033,37.80101867
37,PSA6,Precita Park,FY06Q3,0.809,Ball Field,Upper Noe Ball Fields,Day & Sanchez St,CA,94131,,41131.458692,843.25765343,0.94425214,-122.42748055,37.74242329
49,PSA6,Potrero del Sol Park,FY06Q3,0.9,Basketball Court,Buchanan St. Mall Basketball Crts,Buchanan & Grove,CA,94102,,2246.38160812,192.13835784,0.05157003,-122.42861057,37.77961618
110,PSA1,Cow Hollow Playground,FY06Q3,1,Restroom,Bay View Restrooms,3rd & Armstrong,CA,94124,,455.10756787,85.75061007,0.01044787,-122.39302007,37.72555732
131,PSA1,Allyne Park,FY06Q3,0.886,Restroom,GGP1 Sharon Meadow Bathroom,Sharon Meadow,CA,94117,,1925.5028652,201.75352464,0.04420364,-122.45891022,37.76818303
203,PSA1,Broadway Tunnel West Mini Park,FY06Q3,0.8,Picnic Area,Pine Lake Park Picnic Areas,Sloat Blvd & Vale St,CA,94116,,1360.96363135,151.88378146,0.03124355,-122.48736957,37.73608483
164,PSA3,Crocker Amazon Playground,FY06Q4,0.98,Clubhouse,Excelsior Clubhouse,Russia Ave & Madrid,CA,94112,1,2747.3730508,278.83978327,0.06307126,-122.43361483,37.72024888
130,PSA1,Helen Wills Playground,FY06Q3,0.949,Restroom,GGP4 Rose Garden Bathroom,Stanyan & Great Hwy,CA,94117,,1693.3252617,167.49628446,0.03887355,-122.47201293,37.77151676
202,PSA2,Utah-18th Street Mini Park,FY06Q3,0.962,Clubhouse,Pine Lake Park Clubhouse,Sloat Blvd & Vale St,CA,94116,1,1707.81071477,191.98863539,0.0392061,-122.48719667,37.73602297
55,PSA2,Franklin Square,FY06Q3,0.893,Basketball Court,Crocker Amazon Basketball Courts,Moscow & Italy St,CA,94112,,16364.7869562,724.77705778,0.37568532,-122.43084993,37.71474057
189,PSA3,Ridgetop Plaza,FY06Q3,0.905,Clubhouse,Junipero Serra Clubhouse,300 Stonecrest Dr,CA,94132,1,1809.03202669,222.38907338,0.04152983,-122.47409921,37.7250867
48,PSA3,India Basin Shoreline Park,FY06Q3,0.946,Basketball Court,Boeddeker Park Basketball Courts,295 Eddy St,CA,94102,,2591.24361113,203.78512047,0.05948701,-122.41243003,37.78432754
14,PSA3,Lessing-Sears Mini Park,FY06Q3,0.653,Ball Field,GGP2 Big Rec Ball Fields,Stanyan & Great Hwy,CA,94117,,338875.045245,2546.55290335,7.7795317,-122.46453564,37.76739107
25,PSA3,Alice Chalmers Playground,FY06Q3,0.977,Ball Field,Miraloma ball fields,Omar & Sequoia Way,CA,94127,,47658.9072215,875.96078663,1.09410234,-122.4493957,37.73853897
83,PSA4,Sigmund Stern Recreation Grove,FY06Q3,0.914,Basketball Court,Moscone Basketball Courts,1800 Chestnut St,CA,94123,,10434.7946896,594.32577847,0.23955088,-122.43314293,37.80208974
67,PSA5,Sunnyside Playground,FY06Q3,0.892,Basketball Court,Jackson Basketball Courts,17th & Arkansas St,CA,94107,,9047.84159772,398.94305154,0.20771069,-122.39976107,37.76385141
180,PSA5,Sunnyside Conservatory,FY06Q3,0.818,Clubhouse,Grattan Clubhouse,1180 Stanyan St,CA,94117,1,2468.96985103,240.14986476,0.05667998,-122.45197204,37.76269549
75,PSA5,Eureka Valley Recreation Center,FY06Q3,0.847,Basketball Court,Little Hollywood Basketball Courts,Lathrop & Tocoloma,CA,94134,,3785.5995273,257.52762314,0.08690575,-122.39780481,37.71007449
79,PSA5,Saturn Street Steps,FY06Q3,0.957,,,,,,,,,,,
21,PSA5,Geneva Avenue Strip,FY06Q3,0,Ball Field,Serra ball fields,300 Stonecrest Drive,CA,94132,,34522.4183236,797.232752,0.79252884,-122.47383836,37.72459671
59,PSA6,Mission Recreation Center,FY06Q3,0.8,Basketball Court,Gilman Basketball Courts,Gilman Ave & Griffith,CA,94124,,4238.10241446,269.28905277,0.09729383,-122.38856943,37.71697286
62,PSA6,Alioto Mini Park,FY06Q3,0.925,Basketball Court,Hayes Valley Basketball Courts,Hayes & Buchanan St,CA,94102,,7077.49719648,358.39552992,0.16247763,-122.42709066,37.77609582
128,PSA1,Lafayette Park,FY06Q3,0.894,Restroom,GGP1 Panhandle Restroom Bldg,Stanyan & Great Hwy,CA,94117,1,1727.51549691,166.4628948,0.03965846,-122.44757749,37.77208711
132,PSA1,Moscone Recreation Center,FY06Q3,0.96,Restroom,GGP5 Hellman Hollow Restrooms (frmrly Speedway M,Stanyan & Great Hwy,CA,94117,,1003.96155916,126.82863382,0.02304788,-122.4846926,37.76952984
170,PSA1,Woh Hei Yuen Park,FY06Q3,1,Activity Center,GGP3 County Fair Bldg,Stanyan & Great Hwy,CA,94117,1,28191.7247907,1359.81325728,0.64719554,-122.46716526,37.76656383
136,PSA1,St. Mary's Square,FY06Q3,0.966,Restroom,Jefferson Square Bathrooms,Eddy & Gough,CA,94109,,449.38542699,90.23716577,0.01031651,-122.42546457,37.78153236
167,PSA4,Midtown Terrace Playground,FY06Q3,0.975,Activity Center,GGP5 Anglers Lodge,Stanyan & Great Hwy,CA,94117,1,2013.00861791,212.43984643,0.0462125,-122.49656408,37.76799666
113,PSA6,Duboce Park,FY06Q3,1,Restroom,Larsen Restrooms,19th Ave & Vicente,CA,94116,,323.65283913,77.38584687,0.00743008,-122.47604401,37.73945888
94,GGP,Golden Gate Park,FY06Q3,0.945,Basketball Court,Selby/Palou Basketball Courts,Palou & Selby,CA,94124,,552.10783524,94.49046177,0.0126747,-122.40020504,37.73900113
94,GGP,Golden Gate Park,FY06Q3,0.928,Basketball Court,Selby/Palou Basketball Courts,Palou & Selby,CA,94124,,552.10783524,94.49046177,0.0126747,-122.40020504,37.73900113
138,PSA1,Justin Herman-Embarcadero Plaza,FY06Q3,0.964,Restroom,Lafayette Park Restrooms,Washington & Laguna St,CA,94115,1,787.52702629,120.22695371,0.01807921,-122.42812055,37.79170701
103,PSA1,Lincoln Park,FY06Q3,0.86,Basketball Court,Walter Haas Basketball Courts,Addison & Farnum,CA,94131,,4080.7046888,264.14249975,0.09368046,-122.43480806,37.74043202
123,PSA2,Sgt. John Macaulay Park,FY06Q3,0.875,Restroom,GGP1 Horseshoe Pits Bathroom,Stanyan & Great Hwy,CA,94117,,349.75651841,77.8627313,0.00802934,-122.45598222,37.77374756
57,PSA2,Eugene Friend Recreation Center,FY06Q3,0.898,Basketball Court,Excelsior Basketball Courts,Russia Ave & Madrid,CA,94112,,5882.71172183,313.12745443,0.13504902,-122.43331869,37.71994082
135,PSA2,Union Square,FY06Q4,1,,,,,,,,,,,
94,GGP,Golden Gate Park,FY06Q4,0.986,Basketball Court,Selby/Palou Basketball Courts,Palou & Selby,CA,94124,,552.10783524,94.49046177,0.0126747,-122.40020504,37.73900113
200,PSA5,States Street Playground,FY06Q4,0.743,Clubhouse,Parque Ninos Unidos Clubhouse,23rd & Treat St,CA,94110,,2043.33632629,288.86182024,0.04690874,-122.41389356,37.75431392
73,PSA5,Seward Mini Park,FY06Q4,0.667,Basketball Court,Koshland Park Basketball Courts,Page & Buchanan,CA,94102,,1589.21913452,151.93653184,0.0364836,-122.42699192,37.77327797
152,PSA1,Chestnut-Kearny Open Space,FY06Q4,0.923,Restroom,Marina Green Bathrooms West,Marina Blvd,CA,94123,,1089.89674304,172.86276135,0.02502069,-122.44826807,37.80575328
204,PSA1,Broadway Tunnel East Mini Park,FY06Q4,0.167,Clubhouse,Portsmouth Square Clubhouse,Washington & Kearny St,CA,94111,,2363.62486901,209.84309912,0.05426158,-122.4052788,37.79502267
70,PSA5,Miraloma Playground,FY06Q4,0.966,Basketball Court,Julius Kahn Basketball Courts,West Pacific Ave & Spruce St,CA,94118,,5049.66417562,295.52117196,0.1159248,-122.45432447,37.7912172
153,PSA1,Francisco Park,FY06Q4,0,Clubhouse,Chalmers: Clubhouse,670 Brunswick & Lowell Roemer,CA,94112,1,3156.83268943,250.24551991,0.0724712,-122.4470315,37.70950787
39,PSA3,Silver Terrace Playground,FY06Q4,0.628,Ball Field,West Sunset Ball Fields,3223 Ortega St & 39th Ave,CA,94116,,222407.848022,3633.30555762,5.10580206,-122.4986525,37.74905447
13,PSA4,Junipero Serra Playground,FY06Q4,0.899,Ball Field,Glen ball fields,Diamond & Farnum Street,CA,94131,,124520.486259,1891.67544541,2.85860846,-122.44059154,37.73600816
93,PSA4,Sunset Playground,FY06Q4,0.906,Basketball Court,Rochambeau Basketball Courts,24th Ave & Lake,CA,94121,,11519.3302359,640.89995279,0.26444849,-122.4846026,37.78477532
68,PSA4,West Portal Playground,FY06Q4,0.949,Basketball Court,James Rolph Jr Basketball Courts,Potrero & Cesar Chavez St,CA,94110,,7643.29521634,509.15403411,0.17546662,-122.40654275,37.75007779
23,PSA6,Juri Commons,FY06Q4,0.979,Ball Field,James Lang Ball Fields,1016 Laguna,CA,94102,,98547.664829,1395.6175974,2.26235214,-122.42465985,37.78097316
187,PSA6,Parque Ninos Unidos,FY06Q4,0.971,Clubhouse,Louis Sutter Clubhouse,Wayland & Yale St,CA,94134,,2487.20644945,176.85402932,0.05709863,-122.41437425,37.72238701
124,PSA2,Raymond Kimbell Playground,FY06Q4,0.744,Restroom,GGP2 Big Rec Bathroom,Stanyan & Great Hwy,CA,94117,1,1854.90428247,185.77869941,0.04258291,-122.46536323,37.76853068
44,PSA3,Gilman Playground,FY06Q4,0.919,Basketball Court,Rossi Basketball Courts,Arguello & Anza,CA,94118,,5991.51196238,319.89579462,0.13754674,-122.45738243,37.7792252
38,PSA3,Bay View Playground,FY06Q4,0.729,Ball Field,Visitacion Valley Ball Fields,Cora & Leland St,CA,94134,,53257.8999859,886.43813687,1.22263804,-122.40908358,37.71227452
91,PSA4,West Sunset Playground,FY06Q4,0.847,Basketball Court,Presidio Heights Basketball Courts,Clay & Walnut St,CA,94118,,6165.96933931,320.01983988,0.14155174,-122.44947936,37.78852017
94,GGP,Golden Gate Park,FY06Q4,0.9,Basketball Court,Selby/Palou Basketball Courts,Palou & Selby,CA,94124,,552.10783524,94.49046177,0.0126747,-122.40020504,37.73900113
107,PSA1,Laurel Hill Playground,FY06Q4,0.988,Restroom,Alamo: Restrooms,Hayes & Steiner,CA,94117,1,479.58760374,96.29146286,0.01100986,-122.43430821,37.776068
54,PSA2,Jackson Playground,FY06Q4,0.833,Basketball Court,Jose Coronado Basketball Courts,21st & Folsom,CA,94110,,6941.84702357,354.07131837,0.15936352,-122.41525922,37.75750603
84,PSA4,Parkside Square,FY06Q4,0.728,Basketball Court,Noe Valley Courts Basketball Courts,24th & Douglass St,CA,94114,,4366.99484314,273.77967126,0.10025281,-122.43903453,37.75155961
33,PSA6,Bernal Heights Recreation Center,FY06Q4,0.926,Ball Field,South Sunset Ball Fields,40th Ave & Vicente St,CA,94116,,97238.4642689,1772.8081394,2.23229691,-122.49845826,37.73710357
34,PSA6,Coleridge Mini Park,FY06Q4,1,Ball Field,St Mary's Ball Fields,Murray & Justin Dr,CA,94112,,84078.5528853,1213.73295736,1.9301857,-122.42088341,37.7344511
137,PSA1,Collis P. Huntington Park,FY06Q4,0.957,,,,,,,,,,,
145,PSA1,Ina Coolbrith Mini Park,FY06Q4,0.875,Restroom,Noe Valley Courts Bathrooms,24th & Douglass St,CA,94114,1,391.33209888,98.01244807,0.00898378,-122.43921804,37.75148479
141,PSA1,Portsmouth Square,FY06Q4,0.829,Restroom,Lower Great Hwy Wawona Bathrooms,Great Hwy & Noriega,CA,94122,1,3391.88708734,1046.45121399,0.07786732,-122.50634897,37.73640946
86,PSA4,Carl Larsen Park,FY06Q4,0.648,Basketball Court,Ocean View Basketball Courts,Capitol & Montana St,CA,94112,,5572.02031431,311.98222779,0.1279165,-122.45670775,37.71633478
105,PSA1,Angelo J. Rossi Playground,FY06Q4,0.854,Basketball Court,YoungbloodColeman Basketball Courts,Mendell & Galvez,CA,94124,,10461.2418713,450.06419153,0.24015803,-122.38380193,37.73816799
154,PSA1,Joseph Conrad Mini Park,FY06Q4,0.974,,,,,,,,,,,
166,PSA1,Julius Kahn Playground,FY06Q4,0.979,Clubhouse,Gilman Clubhouse,Gilman Ave & Griffith,CA,94124,1,3479.96936258,236.52381605,0.07988942,-122.38832992,37.71682579
143,PSA1,Sue Bierman Park,FY06Q4,0.9,,,,,,,,,,,
117,PSA2,Alamo Square,FY06Q4,0.821,Restroom,Gilman Bathrooms,Gilman Ave & Griffith,CA,94124,,378.6686028,94.25731914,0.00869307,-122.38877192,37.71717866
7,PSA5,George Christopher Playground,FY06Q4,0.81,Ball Field,Larsen Ball Fields,19th Avenue & Vicente,CA,94116,,20560.1826994,567.35952328,0.47199874,-122.47602952,37.74084587
8,PSA5,Douglass Playground,FY06Q4,0.937,Ball Field,Crocker Amazon - ball fields,Moscow & Italy Streets,CA,94112,,515443.479217,5506.26766406,11.8330014,-122.43050192,37.71451183
140,PSA1,Betty Ann Ong Chinese Recreation Center,FY06Q4,0.916,Restroom,Lower Great Highway Taraval Restrooms,Great Hwy & Taraval,CA,94122,,5215.72066967,489.53864192,0.11973695,-122.50704685,37.7413345
116,PSA2,Hayes Valley Playground,FY06Q4,0.962,,,,,,,,,,,
114,PSA2,Page-Laguna Mini Park,FY06Q4,0.8,Maintenance Facility,Huntington Park Maint Bldgs,California & Taylor,CA,94108,1,299.70694907,64.77327613,0.00688035,-122.4122741,37.7920544
115,PSA2,Koshland Park,FY06Q4,0.887,Restroom,DuPont Courts Restrooms,30th Ave & Clement,CA,94121,1,291.65593654,75.7329909,0.00669553,-122.49084001,37.78287907
45,PSA3,Youngblood Coleman Playground,FY06Q4,0.75,Basketball Court,Argonne: Basketball,18th Ave  &  Geary Blvd,CA,94121,,4209.02369353,268.01064089,0.09662627,-122.47793647,37.77928896
108,PSA2,Bush-Broderick Mini Park,FY06Q4,0.472,Restroom,Alta: Restrooms,Jackson & Steiner,CA,94115,1,213.12065831,60.72910794,0.0048926,-122.43815497,37.7912412
119,PSA2,Margaret S. Hayward Playground,FY06Q4,0.815,Restroom,GGP3 Arboretum South Restrooms,Stanyan & Great Hwy,CA,94117,,330.07628624,78.2887399,0.00757754,-122.46834526,37.76680021
157,PSA3,Selby-Palou Mini Park,FY06Q4,0.629,Clubhouse,Cabrillo Clubhouse,38th Ave  &  Cabrillo,CA,94121,1,1379.55095637,194.20797613,0.03167026,-122.49845418,37.77309962
188,PSA3,Palou-Phelps Park,FY06Q4,1,Clubhouse,Julius Kahn Clubhouse,West Pacific Ave & Spruce St,CA,94118,1,1443.45118905,163.62705969,0.03313721,-122.45373436,37.79124744
18,PSA4,Brooks Park,FY06Q4,0.892,Ball Field,Rolph ball fields,Potrero & Cesar Chavez Street,CA,94110,,84562.7610124,1302.17308429,1.94130164,-122.4061396,37.74951809
196,PSA4,Head-Brotherhood Mini Park,FY06Q4,0.821,Maintenance Facility,Michelangelo Gardeners Shed,Greenwich & Jones,CA,94133,,249.74198702,68.36951953,0.00573331,-122.41678045,37.80126925
151,PSA1,Alice Marble Tennis Courts,FY06Q4,0.977,Restroom,Marina Green Bathrooms East,Marina Blvd,CA,94123,1,494.31070948,93.51395156,0.01134786,-122.43453075,37.80646143
148,PSA1,Michelangelo Playground,FY06Q4,1,Restroom,St Mary's Square Bathrooms,California St & Grant St,CA,94108,1,448.57654648,94.36105014,0.01029794,-122.40507908,37.79171479
150,PSA1,Joe DiMaggio North Beach Playground,FY06Q4,0.964,Restroom,Washington Square Bathrooms,Filbert & Stockton & Columbus,CA,94133,1,287.27759197,83.94499361,0.00659501,-122.41063078,37.80105784
149,PSA1,Telegraph Hill/Pioneer Park,FY06Q4,0.761,Restroom,States Street Restrooms,States St,CA,94114,1,298.62389649,80.84643246,0.00685549,-122.43856985,37.76376486
134,PSA2,Father Alfred E. Boeddeker Park,FY06Q4,0.702,Restroom,Holly Park Bathrooms,Holly Park Cir,CA,94110,,446.49970338,92.08904239,0.01025026,-122.42057329,37.73711761
192,PSA2,Turk-Hyde Mini Park,FY06Q4,0.955,Activity Center,Lincoln Park Golf Course Clubhouse,34th Ave & Clement,CA,94121,,8288.49405798,571.17541938,0.1902784,-122.49430875,37.78226619
104,PSA2,Grattan Playground,FY06Q4,0.761,Basketball Court,West Sunset Basketball Courts,3223 Ortega St & 39th Ave,CA,94116,,7821.63435515,370.89819061,0.17956074,-122.49777649,37.75025416
172,PSA1,Richmond Recreation Center,FY06Q4,1,Fieldhouse,GGP1 Kezar Fieldhouse S,755 Stanyan,CA,94117,,2260.34423283,232.58714591,0.05189057,-122.45598582,37.76620435
96,PSA1,Fulton Playground,FY06Q4,1,Basketball Court,Friend Basketball Courts,270 6th St,CA,94103,,6206.83755454,325.53343636,0.14248995,-122.40664464,37.77871683
156,PSA1,10th Avenue-Clement Mini Park,FY06Q4,0.673,Clubhouse,Boeddeker Park Clubhouse,295 Eddy St,CA,94102,2,3737.61853707,341.73327562,0.08580426,-122.41181591,37.78431772
95,PSA1,Cabrillo Playground,FY06Q4,0.93,Basketball Court,Silver Terrace Basketball Courts,Thornton & Bayshore,CA,94124,,6430.65812057,324.46297144,0.14762819,-122.40237246,37.73280967
56,PSA2,South Park,FY06Q4,0.878,Basketball Court,Duboce Park Basketball Courts,Duboce & Scott St,CA,94117,,4241.34373459,277.37614501,0.09736824,-122.4342058,37.76943315
88,PSA4,McCoppin Square,FY06Q4,0.677,Basketball Court,Parkside Square Basketball Courts,28th Ave & Vicente,CA,94116,,2332.72574538,203.41131,0.05355223,-122.48342987,37.73875894
10,PSA4,Lake Merced Park,FY06Q4,0.817,Ball Field,Eureka Valley Ball Fields,100 Collingwood,CA,94114,,32412.1511184,705.06018676,0.74408358,-122.4366393,37.7595074
80,PSA5,Corona Heights,FY06Q4,0.914,Basketball Court,Miraloma Basketball Courts,Omar & Sequoia Way,CA,94127,,6480.24350968,333.89334191,0.14876652,-122.44913152,37.73905066
94,GGP,Golden Gate Park,FY06Q4,0.969,Basketball Court,Selby/Palou Basketball Courts,Palou & Selby,CA,94124,,552.10783524,94.49046177,0.0126747,-122.40020504,37.73900113
94,GGP,Golden Gate Park,FY06Q4,0.933,Basketball Court,Selby/Palou Basketball Courts,Palou & Selby,CA,94124,,552.10783524,94.49046177,0.0126747,-122.40020504,37.73900113
122,PSA2,Jefferson Square,FY06Q4,0.9,Restroom,GGP4 Mothers Meadow Bathroom,M.L. King Dr/19th Ave,CA,94117,,1381.33674553,154.49024443,0.03171126,-122.47668133,37.76637364
30,PSA3,Palega Recreation Center,FY06Q4,0.832,Ball Field,Potrero Hill ball fields,801 Arkansas Street,CA,94107,,140706.045878,1431.23966482,3.23017926,-122.39699911,37.75553944
42,PSA3,Little Hollywood Park,FY06Q4,0.957,Basketball Court,Chalmers: Basketball,670 Brunswick & Lowell Roemer,CA,94112,,8546.61023555,381.78457715,0.19620396,-122.44714807,37.70979694
89,PSA4,Golden Gate Heights Park,FY06Q4,0.868,Basketball Court,Palega Basketball Courts,500 Felton,CA,94134,,7360.71353371,362.13436638,0.16897941,-122.41004368,37.72889564
72,PSA5,Noe Valley Courts,FY06Q4,0.845,Basketball Court,Kelloch Velasco Basketball Courts,Kelloch & Velasco St,CA,94134,,8317.7788332,532.84981018,0.19095069,-122.41281406,37.70844554
22,PSA5,Upper Noe Recreation Center,FY06Q4,0.688,Ball Field,Laurel Ball Fields,Euclid & Collins Streets,CA,94118,,24075.7227053,622.98768297,0.55270475,-122.45087374,37.78391437
147,PSA1,Washington Square,FY06Q4,0.914,Restroom,Portsmouth Square Bathrooms,Washington & Walter Lum Pl,CA,94111,4,858.29910606,133.31310475,0.01970392,-122.40560121,37.79460147
144,PSA1,Washington-Hyde Mini Park,FY06Q4,0.977,Restroom,Mountain Lake Restrooms,12th Ave & Lake St,CA,94118,1,907.67914558,157.99653113,0.02083753,-122.47175615,37.78697309
118,PSA2,Joseph L. Alioto Performing Arts Piazza,FY06Q4,0.877,,,,,,,,,,,
168,PSA2,Tenderloin Children's Recreation Center,FY06Q4,1,Activity Center,GGP2 Bowling Green Clubhouse,Stanyan & Great Hwy,CA,94117,1,2741.29987025,210.53731947,0.06293184,-122.45896828,37.76859841
177,PSA3,Visitacion Valley Greenway,FY06Q4,1,,,,,,,,,,,
16,PSA4,Randolph-Bright Mini Park,FY06Q4,0.629,,,,,,,,,,,
17,PSA4,Merced Heights Playground,FY06Q4,0.582,Ball Field,Jackson ball fields,17th & Arkansas Street,CA,94107,,147298.316637,1631.63027581,3.38151758,-122.39966866,37.7644047
158,PSA5,Joost-Baden Mini Park,FY06Q4,0.933,Clubhouse,Cayuga Clubhouse,Cayuga & Naglee St,CA,94112,1,3211.76397627,233.43396958,0.07373225,-122.44979162,37.71423603
1,PSA5,Glen Park,FY06Q4,0.963,Ball Field,Chalmers: Ball Fields,670 Brunswick & Lowell Roemer,CA,94112,,43710.0184176,856.15180694,1.00344796,-122.44643687,37.70989615
31,PSA6,St. Mary's Recreation Center,FY06Q4,0.856,Ball Field,Raymond Kimbell ball fields,Steiner & O'Farrell Street,CA,94115,,104365.61148,1535.71717739,2.39591435,-122.43509741,37.78270623
106,PSA2,Beideman-O'Farrell Mini Park,FY06Q4,0.9,Restroom,Rogers: Restrooms,Ingalls & Oakdale,CA,94124,1,541.23947174,94.82141139,0.0124252,-122.38372054,37.73087851
182,PSA2,Fillmore-Turk Mini Park,FY06Q4,0.692,Clubhouse,J. P. Murphy Clubhouse,1960 9th Ave,CA,94116,2,2599.03414942,236.37915801,0.05966585,-122.46524302,37.75156572
160,PSA4,Brotherhood-Chester Mini Park,FY06Q4,1,Clubhouse,Jose Coronado Clubhouse,21st & Folsom,CA,94110,,1719.76471146,169.15109881,0.03948052,-122.41506007,37.75773343
94,GGP,Golden Gate Park,FY06Q4,0.861,Basketball Court,Selby/Palou Basketball Courts,Palou & Selby,CA,94124,,552.10783524,94.49046177,0.0126747,-122.40020504,37.73900113
102,PSA1,Mountain Lake Park,FY06Q4,0.946,Basketball Court,Upper Noe Basketball Courts,Day & Sanchez St,CA,94131,,5471.93703318,304.92673649,0.12561889,-122.42795075,37.74226468
82,PSA4,Pine Lake Park,FY06Q4,0.915,Basketball Court,Mission PG Basketball Court,19th & Linda,CA,94110,,5620.72826355,309.7624937,0.12903468,-122.42257415,37.75924429
9,PSA4,Rolph Nicol Playground,FY06Q4,0.795,Dog Play Area,Douglass dog play area,26th & Douglass Street,CA,94114,,70655.3372339,1153.01964642,1.62202984,-122.43889466,37.74674101
61,PSA6,Mission Playground,FY06Q4,0.679,Basketball Court,Grattan Basketball Courts,1180 Stanyan St,CA,94117,,7371.65644109,350.30567378,0.16923062,-122.45151797,37.76245816
60,PSA6,Jose Coronado Playground,FY06Q4,0.611,Basketball Court,GGP1 Panhandle Basketball Courts,Stanyan & Great Hwy,CA,94117,,4645.55364528,279.46531331,0.10664766,-122.44838047,37.77230438
32,PSA6,Holly Park,FY06Q4,0.8,Ball Field,Silver Terrace Ball Fields,Thornton & Bayshore,CA,94124,,144641.95196,2286.76352614,3.3205356,-122.40329777,37.73298657
201,PSA6,Prentiss Mini Park,FY06Q4,0.696,Clubhouse,Peixotto Clubhouse,15th St & Roosevelt,CA,94114,1,2206.75911407,197.19342464,0.05066042,-122.43763555,37.7656256
203,PSA1,Broadway Tunnel West Mini Park,FY07Q1,1,Picnic Area,Pine Lake Park Picnic Areas,Sloat Blvd & Vale St,CA,94116,,1360.96363135,151.88378146,0.03124355,-122.48736957,37.73608483
130,PSA1,Helen Wills Playground,FY07Q1,0.99,Restroom,GGP4 Rose Garden Bathroom,Stanyan & Great Hwy,CA,94117,,1693.3252617,167.49628446,0.03887355,-122.47201293,37.77151676
100,PSA1,Richmond Playground,FY07Q1,0.742,Basketball Court,Sunnyside Basketball Courts,Terisita Ave & Melrose,CA,94127,,5666.1323908,304.64579288,0.13007702,-122.44688777,37.73295943
99,PSA1,Rochambeau Playground,FY07Q1,0.754,Basketball Court,States Street Basketball Courts,States St,CA,94114,,7840.89794171,361.90425414,0.18000297,-122.43813886,37.76370219
139,PSA1,Willie Woo Woo Wong Playground,FY07Q1,0.968,Restroom,Lower Great Highway Judah Restrooms,Great Hwy & Noriega,CA,94122,1,1844.32326936,190.92887089,0.04234001,-122.5095536,37.76024004
146,PSA1,Hyde-Vallejo Mini Park,FY07Q1,0.933,Restroom,Parkside Square Bathrooms,28th Ave & Vicente,CA,94116,1,402.59159726,84.4622899,0.00924227,-122.48370969,37.73833246
98,PSA1,DuPont Courts,FY07Q1,0.904,Basketball Court,St Mary's Basketball Courts,Murray & Justin Dr,CA,94112,,7571.2012257,375.26346507,0.17381156,-122.42106171,37.73337066
155,PSA1,Muriel Leff Mini Park,FY07Q1,0.911,Clubhouse,Argonne: Clubhouse,18th Ave  &  Geary Blvd,CA,94121,1,1629.31048702,213.18216445,0.03740397,-122.47766682,37.77958789
6,PSA5,Everson-Digby Lots,FY07Q1,1,Ball Field,Draves ball fields,Folsom & Sherman Street,CA,94103,,11064.1111754,406.20106045,0.25399806,-122.40552813,37.77649004
197,PSA5,Topaz Open Space,FY07Q1,0,Clubhouse,Midtown Terrace Clubhouse,Clarendon & Olympia Way,CA,94131,1,2250.31679961,210.45916064,0.05166037,-122.45586793,37.7515958
176,PSA6,Mullen-Peralta Mini Park,FY07Q1,1,Activity Center,GGP1 Sharon Arts Studio,Sharon Meadow,CA,94117,2,8482.89796935,513.54125224,0.19474132,-122.4582116,37.76827229
127,PSA2,Cottage Row Mini Park,FY07Q1,1,Restroom,GGP2 Japanese Tea Garden Women's Bathrm,Stanyan & Great Hwy,CA,94117,,390.48083205,116.41633881,0.00896424,-122.46944064,37.7704745
121,PSA2,Buchanan Street Mall,FY07Q1,0.593,,,,,,,,,,,
101,PSA1,Park Presidio Boulevard,FY07Q1,0.824,Basketball Court,Sunset Basketball Courts,2201 Lawton,CA,94122,,5862.00774433,325.58222614,0.13457372,-122.48655481,37.75667826
6,PSA5,Everson-Digby Lots,FY07Q1,0.5,Ball Field,Draves ball fields,Folsom & Sherman Street,CA,94103,,11064.1111754,406.20106045,0.25399806,-122.40552813,37.77649004
94,GGP,Golden Gate Park,FY07Q1,0.847,Basketball Court,Selby/Palou Basketball Courts,Palou & Selby,CA,94124,,552.10783524,94.49046177,0.0126747,-122.40020504,37.73900113
123,PSA2,Sgt. John Macaulay Park,FY07Q1,0.85,Restroom,GGP1 Horseshoe Pits Bathroom,Stanyan & Great Hwy,CA,94117,,349.75651841,77.8627313,0.00802934,-122.45598222,37.77374756
167,PSA4,Midtown Terrace Playground,FY07Q1,0.893,Activity Center,GGP5 Anglers Lodge,Stanyan & Great Hwy,CA,94117,1,2013.00861791,212.43984643,0.0462125,-122.49656408,37.76799666
195,PSA5,Peixotto Playground,FY07Q1,0.884,Clubhouse,McCoppin Square Clubhouse,24th & Taraval,CA,94116,1,1220.97237056,186.16244717,0.02802978,-122.48075768,37.743533
78,PSA5,Mt. Olympus,FY07Q1,0.722,Basketball Court,Michelangelo Basketball Courts,Greenwich & Jones,CA,94133,,4157.34091877,255.5544523,0.0954398,-122.41675033,37.80101867
79,PSA5,Saturn Street Steps,FY07Q1,0.364,,,,,,,,,,,
132,PSA1,Moscone Recreation Center,FY07Q1,0.944,Restroom,GGP5 Hellman Hollow Restrooms (frmrly Speedway M,Stanyan & Great Hwy,CA,94117,,1003.96155916,126.82863382,0.02304788,-122.4846926,37.76952984
128,PSA1,Lafayette Park,FY07Q1,0.924,Restroom,GGP1 Panhandle Restroom Bldg,Stanyan & Great Hwy,CA,94117,1,1727.51549691,166.4628948,0.03965846,-122.44757749,37.77208711
126,PSA2,Japantown Peace Plaza,FY07Q1,0.833,Restroom,GGP1 Conservatory Bathroom,Stanyan & Great Hwy,CA,94117,,1292.9298713,145.49034208,0.0296817,-122.46077534,37.77259623
28,PSA3,John McLaren Park,FY07Q1,0.689,Ball Field,Parkside ball fields,28th Ave & Vicente,CA,94116,,104340.628735,1513.14170986,2.39534082,-122.48430123,37.73838541
48,PSA3,India Basin Shoreline Park,FY07Q1,0.79,Basketball Court,Boeddeker Park Basketball Courts,295 Eddy St,CA,94102,,2591.24361113,203.78512047,0.05948701,-122.41243003,37.78432754
202,PSA2,Utah-18th Street Mini Park,FY07Q1,0.882,Clubhouse,Pine Lake Park Clubhouse,Sloat Blvd & Vale St,CA,94116,1,1707.81071477,191.98863539,0.0392061,-122.48719667,37.73602297
26,PSA3,Kelloch Velasco Mini Park,FY07Q1,0.75,Ball Field,Moscone ball fields,1800 Chestnut Street,CA,94123,,209906.117877,2000.31810716,4.81880068,-122.43287515,37.80222739
83,PSA4,Sigmund Stern Recreation Grove,FY07Q1,0.823,Basketball Court,Moscone Basketball Courts,1800 Chestnut St,CA,94123,,10434.7946896,594.32577847,0.23955088,-122.43314293,37.80208974
63,PSA6,Mission Dolores Park,FY07Q1,0.703,Basketball Court,Head/Brotherhood Basketball Courts,Head St & Brotherhood Way,CA,94112,,5011.46119745,296.28422135,0.11504778,-122.46417493,37.7126251
59,PSA6,Mission Recreation Center,FY07Q1,0.935,Basketball Court,Gilman Basketball Courts,Gilman Ave & Griffith,CA,94124,,4238.10241446,269.28905277,0.09729383,-122.38856943,37.71697286
55,PSA2,Franklin Square,FY07Q1,0.72,Basketball Court,Crocker Amazon Basketball Courts,Moscow & Italy St,CA,94112,,16364.7869562,724.77705778,0.37568532,-122.43084993,37.71474057
52,PSA2,Potrero Hill Recreation Center,FY07Q1,0.811,Basketball Court,Cayuga Basketball Courts,Cayuga & Naglee St,CA,94112,,7743.77720525,358.05812772,0.17777337,-122.45013946,37.71405211
194,PSA5,29th Street-Diamond Open Space,FY07Q1,1,Clubhouse,MS Hayward Clubhouse,1016 Laguna,CA,94102,1,1365.16487066,192.08141295,0.03134,-122.42689899,37.78066418
37,PSA6,Precita Park,FY07Q1,0.932,Ball Field,Upper Noe Ball Fields,Day & Sanchez St,CA,94131,,41131.458692,843.25765343,0.94425214,-122.42748055,37.74242329
57,PSA2,Eugene Friend Recreation Center,FY07Q1,0.906,Basketball Court,Excelsior Basketball Courts,Russia Ave & Madrid,CA,94112,,5882.71172183,313.12745443,0.13504902,-122.43331869,37.71994082
193,PSA2,Esprit Park,FY07Q1,1,Clubhouse,MS Hayward Historic Clubhouse,1016 Laguna,CA,94102,,1016.86513675,169.67849563,0.0233441,-122.42668959,37.7807431
160,PSA4,Brotherhood-Chester Mini Park,FY07Q1,0.8,Clubhouse,Jose Coronado Clubhouse,21st & Folsom,CA,94110,,1719.76471146,169.15109881,0.03948052,-122.41506007,37.75773343
167,PSA4,Midtown Terrace Playground,FY07Q1,0.871,Activity Center,GGP5 Anglers Lodge,Stanyan & Great Hwy,CA,94117,1,2013.00861791,212.43984643,0.0462125,-122.49656408,37.76799666
19,PSA4,Minnie & Lovie Ward Recreation Center,FY07Q1,0.364,Ball Field,Louis Sutter PG Ball Fields,Mansell & Visitacion,CA,94134,,111951.522599,1514.096974,2.5700636,-122.41348022,37.72310926
67,PSA5,Sunnyside Playground,FY07Q1,0.821,Basketball Court,Jackson Basketball Courts,17th & Arkansas St,CA,94107,,9047.84159772,398.94305154,0.20771069,-122.39976107,37.76385141
4,PSA5,Walter Haas Playground,FY07Q1,0.951,Ball Field,Balboa ball fields,Ocean & San Jose,CA,94112,,223812.895502,5432.1560005,5.13805764,-122.44532438,37.72402602
78,PSA5,Mt. Olympus,FY07Q1,0.526,Basketball Court,Michelangelo Basketball Courts,Greenwich & Jones,CA,94133,,4157.34091877,255.5544523,0.0954398,-122.41675033,37.80101867
94,GGP,Golden Gate Park,FY07Q1,0.896,Basketball Court,Selby/Palou Basketball Courts,Palou & Selby,CA,94124,,552.10783524,94.49046177,0.0126747,-122.40020504,37.73900113
109,PSA1,Presidio Heights Playground,FY07Q1,0.87,Restroom,Balboa Park East Bathrooms,Ocean & San Jose,CA,94112,,1008.10053654,127.05939092,0.0231429,-122.44423221,37.72518276
170,PSA1,Woh Hei Yuen Park,FY07Q1,0.958,Activity Center,GGP3 County Fair Bldg,Stanyan & Great Hwy,CA,94117,1,28191.7247907,1359.81325728,0.64719554,-122.46716526,37.76656383
136,PSA1,St. Mary's Square,FY07Q1,0.88,Restroom,Jefferson Square Bathrooms,Eddy & Gough,CA,94109,,449.38542699,90.23716577,0.01031651,-122.42546457,37.78153236
59481,PSA2,Patricia's Green in Hayes Valley,FY07Q1,0.978,,,,,,,,,,,
120,PSA2,Golden Gate-Steiner Mini Park,FY07Q1,0.708,,,,,,,,,,,
28,PSA3,John McLaren Park,FY07Q1,0.859,Ball Field,Parkside ball fields,28th Ave & Vicente,CA,94116,,104340.628735,1513.14170986,2.39534082,-122.48430123,37.73838541
189,PSA3,Ridgetop Plaza,FY07Q1,0.875,Clubhouse,Junipero Serra Clubhouse,300 Stonecrest Dr,CA,94132,1,1809.03202669,222.38907338,0.04152983,-122.47409921,37.7250867
181,PSA5,Diamond-Farnum Open Space,FY07Q1,1,Clubhouse,Helen Wills Clubhouse,Broadway & Larkin St,CA,94109,1,2949.7557894,264.36063209,0.06771735,-122.42060908,37.79567518
66,PSA5,Balboa Park,FY07Q1,0.979,Basketball Court,J. P. Murphy Basketball Courts,1960 9th Ave,CA,94116,,5492.96238447,305.76962535,0.12610157,-122.46492925,37.75169429
113,PSA6,Duboce Park,FY07Q1,0.814,Restroom,Larsen Restrooms,19th Ave & Vicente,CA,94116,,323.65283913,77.38584687,0.00743008,-122.47604401,37.73945888
49,PSA6,Potrero del Sol Park,FY07Q1,0.733,Basketball Court,Buchanan St. Mall Basketball Crts,Buchanan & Grove,CA,94102,,2246.38160812,192.13835784,0.05157003,-122.42861057,37.77961618
53,PSA2,McKinley Square,FY07Q1,0.75,Basketball Court,Basketball Courts,Washington & Mason St,CA,94108,,4599.31621875,285.19390368,0.10558619,-122.41204267,37.79411551
14,PSA3,Lessing-Sears Mini Park,FY07Q1,0.922,Ball Field,GGP2 Big Rec Ball Fields,Stanyan & Great Hwy,CA,94117,,338875.045245,2546.55290335,7.7795317,-122.46453564,37.76739107
15,PSA3,Cayuga Playground,FY07Q1,0.966,Ball Field,Holly ball fields,Holly Park Circle,CA,94110,,41701.5094901,811.86392619,0.95733876,-122.41988213,37.73755457
29,PSA3,Excelsior Playground,FY07Q1,0.978,Ball Field,Palega ball fields,500 Felton,CA,94134,,84054.7028935,1281.833866,1.92963818,-122.40925318,37.72949294
85,PSA4,South Sunset Playground,FY07Q1,0.871,Basketball Court,Joe Dimaggio Basketball Courts,651 Lombard St,CA,94133,,8238.44653742,368.89918681,0.18912946,-122.41205791,37.8024484
91,PSA4,West Sunset Playground,FY07Q1,0.883,Basketball Court,Presidio Heights Basketball Courts,Clay & Walnut St,CA,94118,,6165.96933931,320.01983988,0.14155174,-122.44947936,37.78852017
180,PSA5,Sunnyside Conservatory,FY07Q1,0.588,Clubhouse,Grattan Clubhouse,1180 Stanyan St,CA,94117,1,2468.96985103,240.14986476,0.05667998,-122.45197204,37.76269549
81,PSA5,Buena Vista Park,FY07Q1,0.8,Basketball Court,Mission Dolores Basketball Courts,19th & Dolores St,CA,94110,,6114.33862854,324.16947022,0.14036646,-122.42739885,37.76103393
21,PSA5,Geneva Avenue Strip,FY07Q1,0.25,Ball Field,Serra ball fields,300 Stonecrest Drive,CA,94132,,34522.4183236,797.232752,0.79252884,-122.47383836,37.72459671
24,PSA6,Garfield Square,FY07Q1,0.927,Ball Field,McCoppin Ball Fields,24th & Taraval,CA,94116,,77985.770037,1152.13806504,1.7903141,-122.47987668,37.74401981
62,PSA6,Alioto Mini Park,FY07Q1,0.956,Basketball Court,Hayes Valley Basketball Courts,Hayes & Buchanan St,CA,94102,,7077.49719648,358.39552992,0.16247763,-122.42709066,37.77609582
28,PSA3,John McLaren Park,FY07Q1,0.872,Ball Field,Parkside ball fields,28th Ave & Vicente,CA,94116,,104340.628735,1513.14170986,2.39534082,-122.48430123,37.73838541
50,PSA6,James Rolph Jr. Playground,FY07Q1,0.683,Basketball Court,Cabrillo Basketball Courts,38th Ave  &  Cabrillo,CA,94121,,7295.76407392,488.94951375,0.16748837,-122.49870696,37.77278236
199,PSA6,Coso-Precita Mini Park,FY07Q1,1,Maintenance Facility,Mission Dolores Park Maintenance Building,19th & Dolores St,CA,94110,2,1172.48017632,140.29280117,0.02691655,-122.42685893,37.75962315
94,GGP,Golden Gate Park,FY07Q1,0.831,Basketball Court,Selby/Palou Basketball Courts,Palou & Selby,CA,94124,,552.10783524,94.49046177,0.0126747,-122.40020504,37.73900113
191,PSA6,Kid Power Park,FY07Q1,0.978,Clubhouse,Laurel Hill Clubhouse,Euclid & Collins St,CA,94118,1,1340.11904178,184.90093265,0.03076502,-122.45120921,37.78370026
184,PSA1,Fay Park,FY07Q1,1,Clubhouse,James Rolph Jr Clubhouse,Potrero & Cesar Chavez St,CA,94110,1,2967.47364084,239.32732981,0.06812409,-122.4066724,37.74997723
138,PSA1,Justin Herman-Embarcadero Plaza,FY07Q1,0.909,Restroom,Lafayette Park Restrooms,Washington & Laguna St,CA,94115,1,787.52702629,120.22695371,0.01807921,-122.42812055,37.79170701
25,PSA3,Alice Chalmers Playground,FY07Q1,0.867,Ball Field,Miraloma ball fields,Omar & Sequoia Way,CA,94127,,47658.9072215,875.96078663,1.09410234,-122.4493957,37.73853897
90,PSA4,J. P. Murphy Playground,FY07Q1,0.957,Basketball Court,Potrero Hill Basketball Courts,801 Arkansas St,CA,94107,,5816.79070531,317.60049201,0.13353567,-122.39716361,37.75692591
131,PSA1,Allyne Park,FY07Q1,0.967,Restroom,GGP1 Sharon Meadow Bathroom,Sharon Meadow,CA,94117,,1925.5028652,201.75352464,0.04420364,-122.45891022,37.76818303
103,PSA1,Lincoln Park,FY07Q1,0.831,Basketball Court,Walter Haas Basketball Courts,Addison & Farnum,CA,94131,,4080.7046888,264.14249975,0.09368046,-122.43480806,37.74043202
110,PSA1,Cow Hollow Playground,FY07Q1,1,Restroom,Bay View Restrooms,3rd & Armstrong,CA,94124,,455.10756787,85.75061007,0.01044787,-122.39302007,37.72555732
27,PSA3,Visitacion Valley Playground,FY07Q1,0.915,Ball Field,Ocean View Ball Fields,Capitol & Montana Street,CA,94112,,135493.229462,2241.10323087,3.11050899,-122.45760265,37.71549811
75,PSA5,Eureka Valley Recreation Center,FY07Q1,0.782,Basketball Court,Little Hollywood Basketball Courts,Lathrop & Tocoloma,CA,94134,,3785.5995273,257.52762314,0.08690575,-122.39780481,37.71007449
46,PSA3,Adam Rogers Park,FY07Q1,0.782,Basketball Court,Bernal Hts RC  Basketball Courts,500 Moultrie St,CA,94110,,3530.32840865,244.46992476,0.08104551,-122.41633421,37.73824803
47,PSA3,Hilltop Park,FY07Q1,0.718,Basketball Court,Victoria Manalo DravesBsktball Crts,Folsom & Sherman St,CA,94103,,7339.78761317,361.08977147,0.16849901,-122.40660765,37.77738554
163,PSA4,Lower Great Highway,FY07Q1,0.806,Clubhouse,Douglass Clubhouse,26th & Douglass St,CA,94114,1,1125.83014062,175.93961953,0.02584561,-122.43839743,37.74780728
16,PSA4,Randolph-Bright Mini Park,FY07Q2,0.738,,,,,,,,,,,
94,GGP,Golden Gate Park,FY07Q2,0.808,Basketball Court,Selby/Palou Basketball Courts,Palou & Selby,CA,94124,,552.10783524,94.49046177,0.0126747,-122.40020504,37.73900113
124,PSA2,Raymond Kimbell Playground,FY07Q2,0.681,Restroom,GGP2 Big Rec Bathroom,Stanyan & Great Hwy,CA,94117,1,1854.90428247,185.77869941,0.04258291,-122.46536323,37.76853068
150,PSA1,Joe DiMaggio North Beach Playground,FY07Q2,0.912,Restroom,Washington Square Bathrooms,Filbert & Stockton & Columbus,CA,94133,1,287.27759197,83.94499361,0.00659501,-122.41063078,37.80105784
149,PSA1,Telegraph Hill/Pioneer Park,FY07Q2,0.981,Restroom,States Street Restrooms,States St,CA,94114,1,298.62389649,80.84643246,0.00685549,-122.43856985,37.76376486
147,PSA1,Washington Square,FY07Q2,0.938,Restroom,Portsmouth Square Bathrooms,Washington & Walter Lum Pl,CA,94111,4,858.29910606,133.31310475,0.01970392,-122.40560121,37.79460147
156,PSA1,10th Avenue-Clement Mini Park,FY07Q2,0.378,Clubhouse,Boeddeker Park Clubhouse,295 Eddy St,CA,94102,2,3737.61853707,341.73327562,0.08580426,-122.41181591,37.78431772
95,PSA1,Cabrillo Playground,FY07Q2,0.874,Basketball Court,Silver Terrace Basketball Courts,Thornton & Bayshore,CA,94124,,6430.65812057,324.46297144,0.14762819,-122.40237246,37.73280967
164,PSA3,Crocker Amazon Playground,FY07Q2,0.797,Clubhouse,Excelsior Clubhouse,Russia Ave & Madrid,CA,94112,1,2747.3730508,278.83978327,0.06307126,-122.43361483,37.72024888
193,PSA2,Esprit Park,FY07Q2,0.875,Clubhouse,MS Hayward Historic Clubhouse,1016 Laguna,CA,94102,,1016.86513675,169.67849563,0.0233441,-122.42668959,37.7807431
45,PSA3,Youngblood Coleman Playground,FY07Q2,0.617,Basketball Court,Argonne: Basketball,18th Ave  &  Geary Blvd,CA,94121,,4209.02369353,268.01064089,0.09662627,-122.47793647,37.77928896
104,PSA2,Grattan Playground,FY07Q2,0.816,Basketball Court,West Sunset Basketball Courts,3223 Ortega St & 39th Ave,CA,94116,,7821.63435515,370.89819061,0.17956074,-122.49777649,37.75025416
195,PSA5,Peixotto Playground,FY07Q2,0.925,Clubhouse,McCoppin Square Clubhouse,24th & Taraval,CA,94116,1,1220.97237056,186.16244717,0.02802978,-122.48075768,37.743533
141,PSA1,Portsmouth Square,FY07Q2,0.704,Restroom,Lower Great Hwy Wawona Bathrooms,Great Hwy & Noriega,CA,94122,1,3391.88708734,1046.45121399,0.07786732,-122.50634897,37.73640946
137,PSA1,Collis P. Huntington Park,FY07Q2,0.979,,,,,,,,,,,
55,PSA2,Franklin Square,FY07Q2,0.796,Basketball Court,Crocker Amazon Basketball Courts,Moscow & Italy St,CA,94112,,16364.7869562,724.77705778,0.37568532,-122.43084993,37.71474057
54,PSA2,Jackson Playground,FY07Q2,0.733,Basketball Court,Jose Coronado Basketball Courts,21st & Folsom,CA,94110,,6941.84702357,354.07131837,0.15936352,-122.41525922,37.75750603
70,PSA5,Miraloma Playground,FY07Q2,0.756,Basketball Court,Julius Kahn Basketball Courts,West Pacific Ave & Spruce St,CA,94118,,5049.66417562,295.52117196,0.1159248,-122.45432447,37.7912172
158,PSA5,Joost-Baden Mini Park,FY07Q2,0.387,Clubhouse,Cayuga Clubhouse,Cayuga & Naglee St,CA,94112,1,3211.76397627,233.43396958,0.07373225,-122.44979162,37.71423603
94,GGP,Golden Gate Park,FY07Q2,0.603,Basketball Court,Selby/Palou Basketball Courts,Palou & Selby,CA,94124,,552.10783524,94.49046177,0.0126747,-122.40020504,37.73900113
151,PSA1,Alice Marble Tennis Courts,FY07Q2,0.973,Restroom,Marina Green Bathrooms East,Marina Blvd,CA,94123,1,494.31070948,93.51395156,0.01134786,-122.43453075,37.80646143
129,PSA1,Alta Plaza,FY07Q2,0.862,Restroom,GGP5 Polo Field Bathroom,Stanyan & Great Hwy,CA,94117,1,2269.8466994,199.66123781,0.05210872,-122.49278049,37.76678507
142,PSA1,Maritime Plaza,FY07Q2,0.878,,,,,,,,,,,
108,PSA2,Bush-Broderick Mini Park,FY07Q2,0.941,Restroom,Alta: Restrooms,Jackson & Steiner,CA,94115,1,213.12065831,60.72910794,0.0048926,-122.43815497,37.7912412
105,PSA1,Angelo J. Rossi Playground,FY07Q2,0.938,Basketball Court,YoungbloodColeman Basketball Courts,Mendell & Galvez,CA,94124,,10461.2418713,450.06419153,0.24015803,-122.38380193,37.73816799
143,PSA1,Sue Bierman Park,FY07Q2,0.771,,,,,,,,,,,
80,PSA5,Corona Heights,FY07Q2,0.867,Basketball Court,Miraloma Basketball Courts,Omar & Sequoia Way,CA,94127,,6480.24350968,333.89334191,0.14876652,-122.44913152,37.73905066
113,PSA6,Duboce Park,FY07Q2,1,Restroom,Larsen Restrooms,19th Ave & Vicente,CA,94116,,323.65283913,77.38584687,0.00743008,-122.47604401,37.73945888
38,PSA3,Bay View Playground,FY07Q2,0.929,Ball Field,Visitacion Valley Ball Fields,Cora & Leland St,CA,94134,,53257.8999859,886.43813687,1.22263804,-122.40908358,37.71227452
44,PSA3,Gilman Playground,FY07Q2,0.896,Basketball Court,Rossi Basketball Courts,Arguello & Anza,CA,94118,,5991.51196238,319.89579462,0.13754674,-122.45738243,37.7792252
39,PSA3,Silver Terrace Playground,FY07Q2,0.951,Ball Field,West Sunset Ball Fields,3223 Ortega St & 39th Ave,CA,94116,,222407.848022,3633.30555762,5.10580206,-122.4986525,37.74905447
177,PSA3,Visitacion Valley Greenway,FY07Q2,0.944,,,,,,,,,,,
61,PSA6,Mission Playground,FY07Q2,0.947,Basketball Court,Grattan Basketball Courts,1180 Stanyan St,CA,94117,,7371.65644109,350.30567378,0.16923062,-122.45151797,37.76245816
33,PSA6,Bernal Heights Recreation Center,FY07Q2,0.873,Ball Field,South Sunset Ball Fields,40th Ave & Vicente St,CA,94116,,97238.4642689,1772.8081394,2.23229691,-122.49845826,37.73710357
145,PSA1,Ina Coolbrith Mini Park,FY07Q2,0.808,Restroom,Noe Valley Courts Bathrooms,24th & Douglass St,CA,94114,1,391.33209888,98.01244807,0.00898378,-122.43921804,37.75148479
135,PSA2,Union Square,FY07Q2,1,,,,,,,,,,,
106,PSA2,Beideman-O'Farrell Mini Park,FY07Q2,0.88,Restroom,Rogers: Restrooms,Ingalls & Oakdale,CA,94124,1,541.23947174,94.82141139,0.0124252,-122.38372054,37.73087851
115,PSA2,Koshland Park,FY07Q2,0.86,Restroom,DuPont Courts Restrooms,30th Ave & Clement,CA,94121,1,291.65593654,75.7329909,0.00669553,-122.49084001,37.78287907
119,PSA2,Margaret S. Hayward Playground,FY07Q2,0.825,Restroom,GGP3 Arboretum South Restrooms,Stanyan & Great Hwy,CA,94117,,330.07628624,78.2887399,0.00757754,-122.46834526,37.76680021
114,PSA2,Page-Laguna Mini Park,FY07Q2,0.514,Maintenance Facility,Huntington Park Maint Bldgs,California & Taylor,CA,94108,1,299.70694907,64.77327613,0.00688035,-122.4122741,37.7920544
118,PSA2,Joseph L. Alioto Performing Arts Piazza,FY07Q2,0.98,,,,,,,,,,,
84,PSA4,Parkside Square,FY07Q2,0.721,Basketball Court,Noe Valley Courts Basketball Courts,24th & Douglass St,CA,94114,,4366.99484314,273.77967126,0.10025281,-122.43903453,37.75155961
9,PSA4,Rolph Nicol Playground,FY07Q2,0.805,Dog Play Area,Douglass dog play area,26th & Douglass Street,CA,94114,,70655.3372339,1153.01964642,1.62202984,-122.43889466,37.74674101
196,PSA4,Head-Brotherhood Mini Park,FY07Q2,0.64,Maintenance Facility,Michelangelo Gardeners Shed,Greenwich & Jones,CA,94133,,249.74198702,68.36951953,0.00573331,-122.41678045,37.80126925
17,PSA4,Merced Heights Playground,FY07Q2,0.894,Ball Field,Jackson ball fields,17th & Arkansas Street,CA,94107,,147298.316637,1631.63027581,3.38151758,-122.39966866,37.7644047
32,PSA6,Holly Park,FY07Q2,0.922,Ball Field,Silver Terrace Ball Fields,Thornton & Bayshore,CA,94124,,144641.95196,2286.76352614,3.3205356,-122.40329777,37.73298657
94,GGP,Golden Gate Park,FY07Q2,0.968,Basketball Court,Selby/Palou Basketball Courts,Palou & Selby,CA,94124,,552.10783524,94.49046177,0.0126747,-122.40020504,37.73900113
37264,PSA5,Portola Open Space,FY07Q2,1,,,,,,,,,,,
146,PSA1,Hyde-Vallejo Mini Park,FY07Q2,0.933,Restroom,Parkside Square Bathrooms,28th Ave & Vicente,CA,94116,1,402.59159726,84.4622899,0.00924227,-122.48370969,37.73833246
117,PSA2,Alamo Square,FY07Q2,0.781,Restroom,Gilman Bathrooms,Gilman Ave & Griffith,CA,94124,,378.6686028,94.25731914,0.00869307,-122.38877192,37.71717866
168,PSA2,Tenderloin Children's Recreation Center,FY07Q2,0.938,Activity Center,GGP2 Bowling Green Clubhouse,Stanyan & Great Hwy,CA,94117,1,2741.29987025,210.53731947,0.06293184,-122.45896828,37.76859841
30,PSA3,Palega Recreation Center,FY07Q2,0.908,Ball Field,Potrero Hill ball fields,801 Arkansas Street,CA,94107,,140706.045878,1431.23966482,3.23017926,-122.39699911,37.75553944
93,PSA4,Sunset Playground,FY07Q2,0.892,Basketball Court,Rochambeau Basketball Courts,24th Ave & Lake,CA,94121,,11519.3302359,640.89995279,0.26444849,-122.4846026,37.78477532
18,PSA4,Brooks Park,FY07Q2,0.918,Ball Field,Rolph ball fields,Potrero & Cesar Chavez Street,CA,94110,,84562.7610124,1302.17308429,1.94130164,-122.4061396,37.74951809
31,PSA6,St. Mary's Recreation Center,FY07Q2,0.831,Ball Field,Raymond Kimbell ball fields,Steiner & O'Farrell Street,CA,94115,,104365.61148,1535.71717739,2.39591435,-122.43509741,37.78270623
201,PSA6,Prentiss Mini Park,FY07Q2,0.792,Clubhouse,Peixotto Clubhouse,15th St & Roosevelt,CA,94114,1,2206.75911407,197.19342464,0.05066042,-122.43763555,37.7656256
187,PSA6,Parque Ninos Unidos,FY07Q2,0.944,Clubhouse,Louis Sutter Clubhouse,Wayland & Yale St,CA,94134,,2487.20644945,176.85402932,0.05709863,-122.41437425,37.72238701
148,PSA1,Michelangelo Playground,FY07Q2,0.981,Restroom,St Mary's Square Bathrooms,California St & Grant St,CA,94108,1,448.57654648,94.36105014,0.01029794,-122.40507908,37.79171479
116,PSA2,Hayes Valley Playground,FY07Q2,0.818,,,,,,,,,,,
59481,PSA2,Patricia's Green in Hayes Valley,FY07Q2,0.897,,,,,,,,,,,
134,PSA2,Father Alfred E. Boeddeker Park,FY07Q2,0.949,Restroom,Holly Park Bathrooms,Holly Park Cir,CA,94110,,446.49970338,92.08904239,0.01025026,-122.42057329,37.73711761
86,PSA4,Carl Larsen Park,FY07Q2,0.716,Basketball Court,Ocean View Basketball Courts,Capitol & Montana St,CA,94112,,5572.02031431,311.98222779,0.1279165,-122.45670775,37.71633478
88,PSA4,McCoppin Square,FY07Q2,0.831,Basketball Court,Parkside Square Basketball Courts,28th Ave & Vicente,CA,94116,,2332.72574538,203.41131,0.05355223,-122.48342987,37.73875894
159,PSA5,Cayuga-Lamartine Mini Park,FY07Q2,0.96,Clubhouse,Willie Woo Woo Wong Clubhouse,850 Sacramento St,CA,94108,2,3403.83588163,243.05796446,0.07814163,-122.40690115,37.79359973
72,PSA5,Noe Valley Courts,FY07Q2,0.939,Basketball Court,Kelloch Velasco Basketball Courts,Kelloch & Velasco St,CA,94134,,8317.7788332,532.84981018,0.19095069,-122.41281406,37.70844554
1,PSA5,Glen Park,FY07Q2,0.876,Ball Field,Chalmers: Ball Fields,670 Brunswick & Lowell Roemer,CA,94112,,43710.0184176,856.15180694,1.00344796,-122.44643687,37.70989615
63,PSA6,Mission Dolores Park,FY07Q2,0.945,Basketball Court,Head/Brotherhood Basketball Courts,Head St & Brotherhood Way,CA,94112,,5011.46119745,296.28422135,0.11504778,-122.46417493,37.7126251
